Node_ID,Primary_Street,Secondary_Street,Morphological_Clutter,Altitude_m,Latitude,Longitude,Serving_GW_ID,RSSI_dBm,Status
1,12 de Noviembre,5 de Junio,Dense Urban,2568,-1.2376395,-78.6215373,3,-135.47,CONNECTED
2,12 de Noviembre,Abdón Calderón,Dense Urban,2561,-1.2367223,-78.6200311,3,-122.49,CONNECTED
3,12 de Noviembre,Avenida 12 de Noviembre,Dense Urban,2581,-1.2437791,-78.6263952,11,-115.18,CONNECTED
4,12 de Noviembre,Avenida 12 de Noviembre,Dense Urban,2581,-1.2437403,-78.6264305,11,-114.98,CONNECTED
5,12 de Noviembre,Avenida Unidad Nacional,Dense Urban,2566,-1.2373703,-78.6211025,3,-134.89,CONNECTED
6,12 de Noviembre,Avenida Unidad Nacional,Dense Urban,2566,-1.2373222,-78.6210299,3,-134.87,CONNECTED
7,12 de Noviembre,Cerro Negro,Dense Urban,2566,-1.2371698,-78.6207801,3,-134.89,CONNECTED
8,12 de Noviembre,Cotacachi,Dense Urban,2569,-1.2379767,-78.6221606,0,-150,OUTAGE
9,12 de Noviembre,Joaquín Ayllón,Dense Urban,2575,-1.2384646,-78.6229858,11,-118.38,CONNECTED
10,12 de Noviembre,Juan Benigno Vela,Dense Urban,2580,-1.240187,-78.623991,11,-110.5,CONNECTED
11,12 de Noviembre,Juan León Mera,Dense Urban,2580,-1.2437137,-78.6263326,11,-114.86,CONNECTED
12,12 de Noviembre,Luis A. Martínez,Dense Urban,2575,-1.2430973,-78.6258122,11,-111.87,CONNECTED
13,12 de Noviembre,Luis A. Martínez,Dense Urban,2576,-1.2431423,-78.6257794,11,-112.18,CONNECTED
14,12 de Noviembre,Mariano Eguez,Dense Urban,2577,-1.2424153,-78.6248975,11,-110.55,CONNECTED
15,12 de Noviembre,Marieta de Veintimilla,Dense Urban,2576,-1.2429911,-78.6255821,11,-111.65,CONNECTED
16,12 de Noviembre,Marieta de Veintimilla,Dense Urban,2576,-1.2429338,-78.6256293,11,-111.21,CONNECTED
17,12 de Noviembre,Redondel de Cumandá,Dense Urban,2555,-1.2361566,-78.6190302,12,-120.4,CONNECTED
18,12 de Noviembre,Redondel de Cumandá,Dense Urban,2555,-1.2360858,-78.6190733,12,-120.56,CONNECTED
19,12 de Noviembre,Tomás Sevilla,Dense Urban,2585,-1.241056,-78.6241566,11,-109.76,CONNECTED
20,12 de Noviembre,Unnamed Road,Dense Urban,2575,-1.2420871,-78.6244964,11,-110.87,CONNECTED
21,12 de Noviembre,Unnamed Road,Dense Urban,2578,-1.2418965,-78.6243399,11,-110.95,CONNECTED
22,12 de Noviembre,Vicente Maldonado,Dense Urban,2575,-1.2393433,-78.6237808,11,-113.07,CONNECTED
23,12 de Octubre,Bartolomé Ruiz,Residential,2631,-1.250354,-78.636515,2,-90.21,CONNECTED
24,12 de Octubre,Centa,Residential,2652,-1.2545702,-78.6391988,4,-104.69,CONNECTED
25,12 de Octubre,Doce de Octubre,Dense Urban,2632,-1.2492429,-78.6344879,2,-117.28,CONNECTED
26,12 de Octubre,Juan El Cano,Residential,2631,-1.249601,-78.635721,2,-87.57,CONNECTED
27,12 de Octubre,Ojeda,Residential,2634,-1.2510749,-78.637573,2,-92.86,CONNECTED
28,12 de Octubre,Pasaje 12 de Octubre,Residential,2639,-1.2527635,-78.6396495,2,-97.15,CONNECTED
29,12 de Octubre,Rábida,Residential,2633,-1.2517132,-78.6384691,2,-94.8,CONNECTED
30,13 de Abril,Avenida Atahualpa,Dense Urban,2614,-1.2468191,-78.6306444,2,-112.21,CONNECTED
31,13 de Abril,Avenida Los Andes,Dense Urban,2583,-1.242388,-78.6241789,11,-113.48,CONNECTED
32,13 de Abril,Juan León Mera,Dense Urban,2584,-1.2440608,-78.6259902,11,-116.67,CONNECTED
33,13 de Abril,Juan León Mera,Dense Urban,2585,-1.244189,-78.6260216,11,-117.22,CONNECTED
34,13 de Abril,Juan León Mera,Dense Urban,2585,-1.2441005,-78.6259228,11,-116.89,CONNECTED
35,13 de Abril,Unnamed Road,Dense Urban,2583,-1.2425223,-78.6242598,11,-113.64,CONNECTED
36,13 de Abril,Unnamed Road,Dense Urban,2586,-1.2436119,-78.6254352,11,-115.17,CONNECTED
37,13 de Abril,Urdaneta,Dense Urban,2587,-1.2442191,-78.6259371,11,-117.4,CONNECTED
38,13 de Diciembre,Calle 3,Residential,2593,-1.2238044,-78.6157168,8,-70.79,CONNECTED
39,13 de Diciembre,Calle S/N,Park/Periphery,2599,-1.2214423,-78.6172347,8,-105.47,CONNECTED
40,13 de Diciembre,Las Palmeras (El Balsamo),Park/Periphery,2599,-1.221703,-78.6170528,8,-104.3,CONNECTED
41,13 de Diciembre,Unnamed Road,Park/Periphery,2599,-1.2218082,-78.6169864,8,-103.82,CONNECTED
42,13 de Mayo,9 de Octubre,Dense Urban,2664,-1.2590349,-78.617264,1,-81.65,CONNECTED
43,13 de Mayo,José Mires,Dense Urban,2673,-1.2594199,-78.6177063,1,-92.24,CONNECTED
44,22 de Enero,Avenida Rodrigo Pachano,Residential,2560,-1.2264292,-78.6008788,7,-85.02,CONNECTED
45,22 de Enero,Avenida Rodrigo Pachano,Residential,2560,-1.2263919,-78.6009185,7,-85.04,CONNECTED
46,22 de Enero,Destacamento J. Jimenez Banga,Residential,2574,-1.2225669,-78.6058818,7,-93.09,CONNECTED
47,22 de Enero,Destacamento Pachicutza,Residential,2569,-1.2230243,-78.6051426,7,-91.84,CONNECTED
48,22 de Enero,Destacamento Pachicutza,Residential,2569,-1.222987,-78.6052004,7,-91.94,CONNECTED
49,22 de Enero,Destacamento Patuce,Residential,2580,-1.2217133,-78.607206,8,-95.01,CONNECTED
50,22 de Enero,Destacamento Soldado Vargas,Residential,2576,-1.2222035,-78.6064579,7,-106.1,CONNECTED
51,22 de Enero,Destacamento de los Tayos,Residential,2570,-1.2238979,-78.6037841,7,-89.49,CONNECTED
52,22 de Enero,Galo Holina,Residential,2577,-1.2220197,-78.6067419,7,-106.83,CONNECTED
53,22 de Enero,Unnamed Road,Residential,2558,-1.2261415,-78.6011912,7,-85.17,CONNECTED
54,22 de Enero,Unnamed Road,Residential,2562,-1.2255935,-78.6017843,7,-85.81,CONNECTED
55,22 de Enero,Unnamed Road,Residential,2564,-1.2247158,-78.6027397,7,-87.52,CONNECTED
56,22 de Enero,Unnamed Road,Residential,2565,-1.22524,-78.6021645,7,-86.43,CONNECTED
57,22 de Enero,Unnamed Road,Residential,2565,-1.2246507,-78.6028131,7,-87.67,CONNECTED
58,22 de Enero,Unnamed Road,Residential,2566,-1.2245498,-78.6029296,7,-87.9,CONNECTED
59,22 de Enero,Unnamed Road,Residential,2569,-1.2236957,-78.6041039,7,-90.02,CONNECTED
60,22 de Enero,Unnamed Road,Residential,2569,-1.2235126,-78.604397,7,-90.51,CONNECTED
61,22 de Enero,Unnamed Road,Residential,2569,-1.2234759,-78.6044555,7,-90.61,CONNECTED
62,22 de Enero,Unnamed Road,Residential,2569,-1.2232605,-78.6047989,7,-91.2,CONNECTED
63,22 de Enero,Unnamed Road,Residential,2571,-1.2228268,-78.6054786,7,-92.39,CONNECTED
64,22 de Enero,Unnamed Road,Residential,2573,-1.2227082,-78.6056626,7,-92.71,CONNECTED
65,24 de Mayo,Avenida Pichincha,Dense Urban,2652,-1.2499551,-78.6253743,9,-116.87,CONNECTED
66,24 de Mayo,Cañar,Dense Urban,2652,-1.2497838,-78.6241509,9,-111.29,CONNECTED
67,24 de Mayo,Tungurahua,Dense Urban,2649,-1.2497133,-78.6236828,9,-108.91,CONNECTED
68,5 de Junio,Avenida Cevallos,Dense Urban,2559,-1.2369938,-78.6219568,3,-119.57,CONNECTED
69,5 de Junio,Avenida Cevallos,Dense Urban,2560,-1.2370395,-78.6219271,3,-119.77,CONNECTED
70,5 de Junio,Darquea,Dense Urban,2560,-1.2359864,-78.6226111,3,-114.34,CONNECTED
71,5 de Junio,Primera Imprenta,Dense Urban,2560,-1.2364528,-78.6223082,3,-116.96,CONNECTED
72,5 de Junio,Simón Bolívar,Dense Urban,2558,-1.2354523,-78.6229581,3,-110.78,CONNECTED
73,9 de Octubre,Agustin Franco,Dense Urban,2676,-1.2591414,-78.6182113,1,-100.04,CONNECTED
74,9 de Octubre,Antonio Pineda,Dense Urban,2664,-1.2592705,-78.6168996,1,-17.68,CONNECTED
75,9 de Octubre,Avenida Luis Alberto Valencia,Dense Urban,2666,-1.2594647,-78.6167666,1,-71.6,CONNECTED
76,9 de Octubre,Cacique Álvarez,Dense Urban,2691,-1.2601414,-78.6190877,1,-122.87,CONNECTED
77,9 de Octubre,José García,Dense Urban,2680,-1.25955,-78.618571,1,-104.19,CONNECTED
78,9 de Octubre,José Mires,Dense Urban,2675,-1.258947,-78.6180413,1,-98.31,CONNECTED
79,9 de Octubre,José de Antepara,Residential,2697,-1.261199,-78.619766,6,-91.48,CONNECTED
80,9 de Octubre,Manuel Matheu,Residential,2703,-1.2622092,-78.620717,6,-90.32,CONNECTED
81,9 de Octubre,Pasaje F,Residential,2699,-1.2614302,-78.619973,6,-91.2,CONNECTED
82,9 de Octubre,Pasaje Piales,Residential,2693,-1.260711,-78.6194059,6,-91.98,CONNECTED
83,A la Costa,Avenida Rodrigo Pachano,Residential,2523,-1.2286529,-78.6246417,3,-106.69,CONNECTED
84,A la Costa,Avenida Rodrigo Pachano,Residential,2523,-1.2286132,-78.6246674,3,-106.83,CONNECTED
85,A la Costa,Himno Nacional,Residential,2521,-1.228078,-78.6250402,3,-109.12,CONNECTED
86,A la Costa,Virgen Del Sol (Trajano Mera),Residential,2522,-1.2275306,-78.6254547,5,-109.77,CONNECTED
87,Abdón Calderón,Avenida Cevallos,Dense Urban,2553,-1.2356667,-78.620392,3,-118.98,CONNECTED
88,Abdón Calderón,Avenida Cevallos,Dense Urban,2553,-1.2355964,-78.6204183,3,-118.72,CONNECTED
89,Abdón Calderón,Avenida González Suárez,Dense Urban,2541,-1.232884,-78.6215167,3,-107.52,CONNECTED
90,Abdón Calderón,Avenida González Suárez,Dense Urban,2541,-1.2327998,-78.6215713,3,-107.13,CONNECTED
91,Abdón Calderón,Avenida Pasteur,Dense Urban,2535,-1.2320641,-78.622051,3,-105.19,CONNECTED
92,Abdón Calderón,Avenida Pasteur,Dense Urban,2536,-1.232131,-78.622014,3,-105.17,CONNECTED
93,Abdón Calderón,Darquea,Dense Urban,2551,-1.2346203,-78.620815,3,-114.71,CONNECTED
94,Abdón Calderón,Eduardo Paredes,Dense Urban,2540,-1.2325347,-78.621758,3,-105.97,CONNECTED
95,Abdón Calderón,Juan Cajas,Dense Urban,2556,-1.2360218,-78.6202823,3,-120.19,CONNECTED
96,Abdón Calderón,Primera Imprenta,Dense Urban,2549,-1.2350001,-78.6206746,3,-116.28,CONNECTED
97,Abdón Calderón,Simón Bolívar,Dense Urban,2549,-1.2336258,-78.6211622,3,-110.62,CONNECTED
98,Abel Castillo,Aparicio Rivadeneira,Dense Urban,2694,-1.2616999,-78.6304858,6,-121.45,CONNECTED
99,Abel Gilbert,Avenida Pasteur,Dense Urban,2517,-1.230983,-78.6181092,0,-150,OUTAGE
100,Abel Gilbert,Julian Coronel,Residential,2511,-1.2300718,-78.6181788,5,-105.24,CONNECTED
101,Abel Gilbert,Miguel Campadónico,Residential,2499,-1.2296043,-78.6177187,5,-105.31,CONNECTED
102,Abel Gilbert,Pablo Arturo Suárez,Dense Urban,2515,-1.2303583,-78.6181587,0,-150,OUTAGE
103,Afectos Intimos,La Heroina,Residential,2541,-1.2266642,-78.6256348,3,-91.5,CONNECTED
104,Afectos Intimos,Virgen Del Sol (Trajano Mera),Residential,2523,-1.2272895,-78.6251412,5,-109.73,CONNECTED
105,Agricultura,Calle F,Residential,2519,-1.2271762,-78.6238575,5,-109.24,CONNECTED
106,Agricultura,Catesismo PG,Residential,2527,-1.2263743,-78.624754,5,-109.93,CONNECTED
107,Aguas Verdes,Huaquillas,Residential,2559,-1.2277581,-78.6054122,7,-78.78,CONNECTED
108,Aguas Verdes,La Piedra,Residential,2550,-1.2266181,-78.6045802,7,-81.35,CONNECTED
109,Alajuela,Asunción,Residential,2507,-1.2437714,-78.6073536,5,-56,CONNECTED
110,Alberto Moncayo,Manuel Isaías Sánchez,Residential,2699,-1.261097,-78.634489,6,-94.82,CONNECTED
111,Alberto Rosero,Destacamento Base Norte,Residential,2578,-1.2243325,-78.6006639,7,-102.72,CONNECTED
112,Alberto Rosero,Destacamento J. Jimenez Banga,Residential,2582,-1.2216225,-78.6050161,8,-98.02,CONNECTED
113,Alberto Rosero,Destacamento Pachicutza,Residential,2580,-1.2220821,-78.6042782,8,-98.74,CONNECTED
114,Alberto Rosero,Destacamento Soldado Vargas,Residential,2586,-1.2212927,-78.6056082,8,-97.44,CONNECTED
115,Alberto Rosero,Destacamento de los Tayos,Residential,2585,-1.2228889,-78.6027846,8,-100.23,CONNECTED
116,Alberto Rosero,Segundo Quiros,Residential,2575,-1.2243584,-78.5999511,7,-90.94,CONNECTED
117,Alberto Rosero,Unnamed Road,Residential,2574,-1.224329,-78.5993115,7,-91.79,CONNECTED
118,Alberto Rosero,Unnamed Road,Residential,2577,-1.2235707,-78.6020114,7,-102.98,CONNECTED
119,Alberto Rosero,Unnamed Road,Residential,2578,-1.2243566,-78.6004495,7,-102.91,CONNECTED
120,Alberto Rosero,Unnamed Road,Residential,2582,-1.2224964,-78.6034933,8,-99.53,CONNECTED
121,Albión,Batallón los Rifles,Dense Urban,2676,-1.2559017,-78.6196317,1,-119.65,CONNECTED
122,Albión,Diego Donoso,Dense Urban,2678,-1.2564081,-78.6203479,1,-120.19,CONNECTED
123,Albión,José Mires,Dense Urban,2678,-1.2561771,-78.6199661,1,-119.72,CONNECTED
124,Albión,Letamendi,Dense Urban,2675,-1.255646,-78.6193193,1,-119.73,CONNECTED
125,Alcedo y Bejarano,Balarezo Moncayo,Dense Urban,2679,-1.2587422,-78.6332624,4,-115.25,CONNECTED
126,Alcedo y Bejarano,Efrén Reyes,Dense Urban,2682,-1.2592442,-78.6339974,4,-113.85,CONNECTED
127,Alejandro Chavez,El Precursor,Park/Periphery,2643,-1.234034,-78.6365126,10,-101.85,CONNECTED
128,Alejandro Chavez,Las Aguacollas,Residential,2639,-1.2348763,-78.6375682,10,-79.72,CONNECTED
129,Alejandro Chavez,Las Aguacollas,Residential,2641,-1.2348767,-78.6376987,10,-80.02,CONNECTED
130,Alejandro Chavez,Maugeri,Residential,2657,-1.2361115,-78.6394844,10,-95.69,CONNECTED
131,Alejo Lascano,Izquieta Perez,Residential,2501,-1.2303021,-78.6162947,5,-104.18,CONNECTED
132,Alemania (Bogota),Noruega,Residential,2465,-1.2389729,-78.6111832,12,-114.07,CONNECTED
133,Alemania (Bogota),Portugal,Dense Urban,2469,-1.2387731,-78.6115668,0,-150,OUTAGE
134,Alemania (Bogota),Suiza (La Paz),Residential,2463,-1.2391954,-78.6107822,12,-115.58,CONNECTED
135,Alfonso Minacho,El Chaguarquero,Park/Periphery,2583,-1.2232421,-78.6100402,8,-108.84,CONNECTED
136,Alfonso Minacho,Francisco Sampedro,Residential,2579,-1.2228138,-78.6091017,7,-108.19,CONNECTED
137,Algeciras,Americo Vespucio,Residential,2652,-1.2548768,-78.6387691,4,-102.71,CONNECTED
138,Algeciras,Avenida Quis Quis,Residential,2660,-1.254931,-78.637901,4,-79.33,CONNECTED
139,Algeciras,Centa,Residential,2652,-1.2548541,-78.6388322,4,-102.96,CONNECTED
140,Almagro,Benalcázar,Dense Urban,2640,-1.2477433,-78.6334242,2,-108.8,CONNECTED
141,Almagro,Magallanes,Dense Urban,2640,-1.2481969,-78.6329712,2,-106.32,CONNECTED
142,Almagro,Pizarro,Residential,2631,-1.2473181,-78.6338531,2,-78.72,CONNECTED
143,Ambrosio Davalos,José García,Dense Urban,2681,-1.2586683,-78.6191949,1,-109.72,CONNECTED
144,Ambrosio Davalos,José Mires,Dense Urban,2674,-1.2580841,-78.6186236,1,-107.63,CONNECTED
145,Americo Vespucio,Málaga,Residential,2655,-1.2533711,-78.6388444,9,-104.61,CONNECTED
146,Americo Vespucio,Valencia,Residential,2655,-1.2530488,-78.6388492,9,-104.59,CONNECTED
147,Ana María Albornoz,Óscar Efrén Reyes,Residential,2705,-1.261353,-78.632573,6,-91.49,CONNECTED
148,Angela Coronado,Maugeri,Residential,2658,-1.2370346,-78.6386031,10,-90.61,CONNECTED
149,Angela Coronado,Nieto Polo de Aguila,Residential,2621,-1.2356386,-78.636587,10,-73.36,CONNECTED
150,Angela Coronado,Raymundo de Salazar,Residential,2657,-1.2367812,-78.6382485,10,-88.63,CONNECTED
151,Angela Coronado,Unnamed Road,Residential,2651,-1.2364253,-78.6377504,10,-73.25,CONNECTED
152,Angela Coronado,Uvas,Residential,2628,-1.2358048,-78.6368293,10,-72.56,CONNECTED
153,Aniceto Jordan Manzano,Avenida Antonio Clavijo,Dense Urban,2668,-1.2572303,-78.633971,4,-108.17,CONNECTED
154,Aniceto Jordan Manzano,César Silva,Dense Urban,2668,-1.257468,-78.6324408,4,-117.07,CONNECTED
155,Aniceto Jordan Manzano,Isaac Robayo,Dense Urban,2674,-1.2581489,-78.6319541,4,-119.55,CONNECTED
156,Ante,Avenida Los Héroes,Dense Urban,2694,-1.2607726,-78.623858,6,-111.62,CONNECTED
157,Ante,Pablo Arenas,Residential,2697,-1.2620794,-78.6229103,6,-85.05,CONNECTED
158,Ante,Pasaje 2,Dense Urban,2694,-1.261251,-78.623538,6,-114.57,CONNECTED
159,Ante,Selva Alegre,Dense Urban,2694,-1.2615785,-78.6232785,6,-116.52,CONNECTED
160,Antillas,Bolivar,Dense Urban,2540,-1.2316559,-78.6176717,12,-123.64,CONNECTED
161,Antisana,Avenida Los Andes,Dense Urban,2602,-1.2413735,-78.6207979,13,-109.1,CONNECTED
162,Antisana,Carihuayrazo,Dense Urban,2606,-1.2412517,-78.6228553,13,-117.41,CONNECTED
163,Antisana,Carihuayrazo,Dense Urban,2609,-1.2413456,-78.6214557,13,-111.71,CONNECTED
164,Antisana,Pasochoa,Dense Urban,2609,-1.241313,-78.6223274,13,-115.28,CONNECTED
165,Antisana,Pasochoa,Dense Urban,2610,-1.2413242,-78.6219175,13,-113.64,CONNECTED
166,Antofagasta,Encarnación,Dense Urban,2556,-1.232145,-78.6026951,7,-111.4,CONNECTED
167,Antofagasta,Guanajuato,Dense Urban,2550,-1.2330101,-78.6026386,7,-115.99,CONNECTED
168,Antofagasta,Paramaribo,Dense Urban,2553,-1.2344636,-78.6026488,7,-121.63,CONNECTED
169,Antofagasta,Tegucigalpa,Dense Urban,2552,-1.2340479,-78.6026488,7,-120.2,CONNECTED
170,Antofagasta,Unnamed Road,Dense Urban,2550,-1.2335773,-78.6026461,7,-118.41,CONNECTED
171,Antonio Arellano,Avenida Rumiñahui,Dense Urban,2658,-1.251298,-78.6230358,9,-98.03,CONNECTED
172,Antonio Arellano,Avenida Rumiñahui,Dense Urban,2659,-1.2514202,-78.6230657,9,-98.82,CONNECTED
173,Antonio Arellano,Ignacio Indaburo,Dense Urban,2663,-1.2520344,-78.6230818,9,-102.43,CONNECTED
174,Antonio Arellano,José Mires,Dense Urban,2666,-1.2526576,-78.6230869,9,-106.71,CONNECTED
175,Antonio Díaz,José Suarez,Dense Urban,2673,-1.2529486,-78.6239463,9,-125.11,CONNECTED
176,Antonio Flores,Camilo Ponce,Dense Urban,2694,-1.2598798,-78.6262044,6,-80.55,CONNECTED
177,Antonio Flores,Isidro Ayora,Dense Urban,2692,-1.2599736,-78.6253321,6,-95.27,CONNECTED
178,Antonio Flores,Jeronimo Carrion,Dense Urban,2693,-1.2599331,-78.6257659,6,-87.62,CONNECTED
179,Antonio José de Sucre,Eloy Alfaro,Dense Urban,2571,-1.2394566,-78.6257655,11,-98.91,CONNECTED
180,Antonio José de Sucre,Eugenio Espejo,Dense Urban,2575,-1.2398346,-78.6262045,11,-89.27,CONNECTED
181,Antonio José de Sucre,Floreana I,Dense Urban,2589,-1.2455861,-78.6316911,11,-128.26,CONNECTED
182,Antonio José de Sucre,Francisco Flor,Dense Urban,2579,-1.2447534,-78.6314115,11,-126.42,CONNECTED
183,Antonio José de Sucre,Guayaquil,Dense Urban,2577,-1.243976,-78.6305668,11,-123.24,CONNECTED
184,Antonio José de Sucre,Joaquín Lalama,Dense Urban,2576,-1.2406209,-78.6270758,11,-87.74,CONNECTED
185,Antonio José de Sucre,José Joaquín de Olmedo,Dense Urban,2580,-1.2445107,-78.6311822,11,-125.56,CONNECTED
186,Antonio José de Sucre,Juan León Mera,Dense Urban,2581,-1.2417087,-78.6281935,11,-107.87,CONNECTED
187,Antonio José de Sucre,Juan Montalvo,Dense Urban,2578,-1.2422423,-78.6287568,11,-112.97,CONNECTED
188,Antonio José de Sucre,Luis A. Martínez,Dense Urban,2578,-1.2411356,-78.6276067,11,-100.01,CONNECTED
189,Antonio José de Sucre,Mariano Castillo,Dense Urban,2581,-1.2427926,-78.6293457,11,-117.01,CONNECTED
190,Antonio José de Sucre,Mariano Eguez,Dense Urban,2579,-1.2402228,-78.6266398,11,-75.65,CONNECTED
191,Antonio José de Sucre,Pasaje José E. Rodo,Dense Urban,2578,-1.2436882,-78.6302633,11,-121.91,CONNECTED
192,Antonio José de Sucre,Quito,Dense Urban,2580,-1.2433619,-78.6299193,11,-120.26,CONNECTED
193,Antonio Machado,Avenida Manuela Sáenz,Residential,2697,-1.2613331,-78.6394619,6,-101.22,CONNECTED
194,Antonio Machado,García Lorca,Residential,2689,-1.260777,-78.638196,4,-85.27,CONNECTED
195,Antonio Machado,Gustavo Adolfo Bécquer,Residential,2691,-1.260936,-78.638556,4,-98.33,CONNECTED
196,Antonio Machado,Menéndez y Pelayo,Residential,2693,-1.261102,-78.638912,4,-99.82,CONNECTED
197,Antonio Pineda,Granaderos,Dense Urban,2665,-1.2594056,-78.617038,1,-68.33,CONNECTED
198,Antonio Pineda,José García,Dense Urban,2679,-1.2602235,-78.618083,1,-102.4,CONNECTED
199,Antonio Pineda,José Mires,Dense Urban,2669,-1.2597488,-78.6174542,1,-90.32,CONNECTED
200,Antonio Romero,José García,Dense Urban,2681,-1.258571,-78.6192668,1,-110.37,CONNECTED
201,Antonio de Sierra,José García,Dense Urban,2680,-1.258469,-78.619355,1,-111.11,CONNECTED
202,Aparicio Rivadeneira,Avenida Jácome Clavijo,Dense Urban,2691,-1.2614777,-78.6309005,6,-122.38,CONNECTED
203,Aparicio Rivadeneira,Avenida Jácome Clavijo,Dense Urban,2691,-1.2614351,-78.6309854,6,-122.58,CONNECTED
204,Aparicio Rivadeneira,Gustavo Eguez,Residential,2698,-1.2621072,-78.6302071,6,-86.97,CONNECTED
205,Araujo,Constantino Fernández,Dense Urban,2552,-1.2361386,-78.626783,3,-120.15,CONNECTED
206,Araujo,Eloy Alfaro,Dense Urban,2554,-1.2368582,-78.6275447,3,-123.63,CONNECTED
207,Araujo,Eugenio Espejo,Dense Urban,2559,-1.2372755,-78.6279436,3,-125.27,CONNECTED
208,Araujo,Joaquín Lalama,Dense Urban,2565,-1.2380798,-78.6287053,11,-134.53,CONNECTED
209,Araujo,Luis A. Martínez,Dense Urban,2565,-1.2388152,-78.6294886,11,-135.37,CONNECTED
210,Araujo,Manuela Cañizares,Dense Urban,2547,-1.2354339,-78.6259369,3,-115.51,CONNECTED
211,Araujo,Mariano Altamirano,Dense Urban,2563,-1.2376628,-78.628316,11,-135.59,CONNECTED
212,Araujo,Obispo Iturralde,Dense Urban,2567,-1.2384697,-78.6291227,11,-134.09,CONNECTED
213,Araujo,Tomás Sevilla,Dense Urban,2552,-1.2364982,-78.627179,3,-122.02,CONNECTED
214,Araujo,Vicente Maldonado,Dense Urban,2551,-1.235823,-78.626396,3,-118.21,CONNECTED
215,Araza,Las Aguacollas,Residential,2612,-1.2348093,-78.6348464,10,-100.99,CONNECTED
216,Arenal,Chiles,Dense Urban,2614,-1.2466751,-78.6208348,13,-115.9,CONNECTED
217,Arenal,Collay,Dense Urban,2614,-1.2454455,-78.6212253,13,-110.78,CONNECTED
218,Argentina,Avenida de las Américas,Dense Urban,2529,-1.2378155,-78.6128849,12,-109.16,CONNECTED
219,Argentina,Avenida de las Américas,Dense Urban,2529,-1.237761,-78.6129251,12,-108.67,CONNECTED
220,Argentina,Avenida de las Américas,Dense Urban,2543,-1.231848,-78.6158975,12,-120.43,CONNECTED
221,Argentina,Avenida de las Américas,Dense Urban,2544,-1.2319263,-78.6158514,12,-120.11,CONNECTED
222,Argentina,Bolivia,Dense Urban,2532,-1.2349852,-78.6146439,12,-98.44,CONNECTED
223,Argentina,Chile,Dense Urban,2541,-1.2327195,-78.6153209,12,-116.35,CONNECTED
224,Argentina,El Salvador,Dense Urban,2539,-1.233871,-78.6148805,12,-109.43,CONNECTED
225,Argentina,Estados Unidos,Dense Urban,2531,-1.2372461,-78.6132435,12,-103.65,CONNECTED
226,Argentina,Panamá,Dense Urban,2532,-1.2368038,-78.6134833,12,-98.3,CONNECTED
227,Argentina,Puerto Rico,Dense Urban,2534,-1.2359016,-78.614076,12,-83.94,CONNECTED
228,Argos,El Pusina,Residential,2671,-1.2379441,-78.637412,10,-84.38,CONNECTED
229,Arica,Avenida Indoamerica,Dense Urban,2547,-1.2342138,-78.6012099,7,-122.39,CONNECTED
230,Arica,Barranquilla,Residential,2557,-1.2360722,-78.6017119,7,-91.53,CONNECTED
231,Arica,Paramaribo,Dense Urban,2550,-1.2346204,-78.6014686,7,-123.2,CONNECTED
232,Arica,Recife,Residential,2554,-1.2352476,-78.6015295,7,-89.93,CONNECTED
233,Arroyo del Rio,Baquerizo Moreno,Dense Urban,2689,-1.2604205,-78.6282142,6,-108.72,CONNECTED
234,Arroyo del Rio,Placido Camamaño,Dense Urban,2689,-1.2597705,-78.6282917,6,-107.87,CONNECTED
235,Arturo Borja,Avenida Antonio Clavijo,Residential,2693,-1.261472,-78.635302,6,-96.19,CONNECTED
236,Arturo Borja,Avenida Jácome Clavijo,Park/Periphery,2713,-1.2652268,-78.6325497,6,-115.96,CONNECTED
237,Arturo Borja,Víctor Manuel Garcés,Residential,2699,-1.261948,-78.635014,6,-95.94,CONNECTED
238,Aruba,Barbados,Residential,2529,-1.2325749,-78.6128751,12,-84.23,CONNECTED
239,Aruba,Haití,Residential,2535,-1.2320163,-78.6137591,12,-85.17,CONNECTED
240,Asunción,Bogotá,Residential,2508,-1.2436664,-78.6068932,5,-47.57,CONNECTED
241,Asunción,Bogotá,Residential,2508,-1.2435768,-78.6068682,5,-51.35,CONNECTED
242,Asunción,Brasilia,Residential,2510,-1.2434546,-78.6064951,5,-58.46,CONNECTED
243,Asunción,Buenos Aires,Residential,2495,-1.2430523,-78.6051742,5,-92.65,CONNECTED
244,Asunción,Calle AX,Residential,2504,-1.2438557,-78.6078209,5,-64.56,CONNECTED
245,Asunción,Cochabamba,Residential,2499,-1.2438552,-78.6082601,5,-69.8,CONNECTED
246,Asunción,Puerto Principe,Residential,2508,-1.2433025,-78.6058182,5,-68.04,CONNECTED
247,Asunción,Río de Janeiro,Park/Periphery,2485,-1.2437395,-78.6093495,5,-118.68,CONNECTED
248,Asunción,Unnamed Road,Residential,2508,-1.243324,-78.605891,5,-67.18,CONNECTED
249,Atacazo,Pasaje,Dense Urban,2569,-1.2392647,-78.6170162,12,-132.46,CONNECTED
250,Atacazo,Quispicacha,Dense Urban,2571,-1.2396681,-78.6168781,11,-132.79,CONNECTED
251,Atlanta,Avenida Nassau,Dense Urban,2557,-1.2317627,-78.6038384,7,-107.93,CONNECTED
252,Atlanta,Maracaibo,Dense Urban,2552,-1.2310729,-78.6018738,7,-108.35,CONNECTED
253,Augusto Bonilla,Emiliano Crespo,Residential,2516,-1.229679,-78.6204342,5,-106.57,CONNECTED
254,Augusto Bonilla,Ernesto Bucheli,Residential,2514,-1.2295524,-78.6205221,5,-106.67,CONNECTED
255,Augusto Bonilla,Pablo Arturo Suárez,Dense Urban,2527,-1.2310747,-78.6201459,0,-150,OUTAGE
256,Augusto Bonilla,Tarquino Toro,Dense Urban,2524,-1.2302889,-78.6202953,0,-150,OUTAGE
257,Augusto Martinez,Soledad Eterna (Tijeretazos Plumas),Residential,2541,-1.2297082,-78.6286884,3,-90.21,CONNECTED
258,Augusto Martinez,Unnamed Road,Residential,2540,-1.2285834,-78.6278948,3,-90.43,CONNECTED
259,Augusto Villacres,Balarezo Moncayo,Dense Urban,2684,-1.2592096,-78.6327891,4,-118.19,CONNECTED
260,Augusto Villacres,Efrén Reyes,Dense Urban,2689,-1.259696,-78.633664,4,-116.62,CONNECTED
261,Augusto Villacres,Ernesto Miño,Residential,2693,-1.2600863,-78.6341861,6,-94.09,CONNECTED
262,Augusto Villacres,Miguel Albornoz,Dense Urban,2686,-1.259461,-78.63326,4,-117.21,CONNECTED
263,Augusto Villacres,Rodrigo Vela Barahona,Dense Urban,2679,-1.2587735,-78.632134,4,-119.68,CONNECTED
264,Augusto Villacres,Unnamed Road,Dense Urban,2664,-1.2577282,-78.6307345,4,-123.37,CONNECTED
265,Aurelio Dávila,Julio Enrique Paredes,Residential,2504,-1.2271816,-78.6178401,5,-106.81,CONNECTED
266,Austria,Calle Europa,Residential,2489,-1.2356623,-78.6104845,12,-110.62,CONNECTED
267,Austria,Portugal (Brasilia),Residential,2485,-1.235712,-78.6102674,12,-111.79,CONNECTED
268,Autachi,Imbabura,Dense Urban,2653,-1.2509956,-78.6279262,9,-125.11,CONNECTED
269,Autachi,Paltas,Dense Urban,2655,-1.2516403,-78.6275273,9,-124.05,CONNECTED
270,Avenida 12 de Noviembre,Juan Montalvo,Dense Urban,2582,-1.2442404,-78.6270216,11,-117.51,CONNECTED
271,Avenida 12 de Noviembre,Mariano Castillo,Dense Urban,2581,-1.2447904,-78.6276674,11,-120.19,CONNECTED
272,Avenida 12 de Noviembre,Pasaje Garcés,Dense Urban,2582,-1.2449985,-78.6278895,11,-121.13,CONNECTED
273,Avenida 12 de Noviembre,Plaza Urbina,Dense Urban,2584,-1.2457349,-78.6286015,11,-124.1,CONNECTED
274,Avenida 12 de Noviembre,Quito,Dense Urban,2583,-1.2453806,-78.6282444,11,-122.71,CONNECTED
275,Avenida Albert Einstein,Benjamin Franklin,Park/Periphery,2630,-1.2622964,-78.6039585,2,-135.5,CONNECTED
276,Avenida Albert Einstein,Evangelista Torricelli,Park/Periphery,2609,-1.2581011,-78.6002536,13,-131.85,CONNECTED
277,Avenida Albert Einstein,Johanes Gutemberg,Park/Periphery,2613,-1.25872,-78.6009912,13,-131.73,CONNECTED
278,Avenida Albert Einstein,Townes,Park/Periphery,2615,-1.2605116,-78.6027627,13,-131.66,CONNECTED
279,Avenida Albert Einstein,Unnamed Road,Park/Periphery,2617,-1.2594685,-78.6018798,13,-131.61,CONNECTED
280,Avenida Antonio Clavijo,Balarezo Moncayo,Residential,2670,-1.257737,-78.6341915,4,-75.14,CONNECTED
281,Avenida Antonio Clavijo,Barcelona,Dense Urban,2655,-1.2557193,-78.6333097,4,-133.75,CONNECTED
282,Avenida Antonio Clavijo,Efrén Reyes,Residential,2677,-1.258701,-78.634598,4,-76.38,CONNECTED
283,Avenida Antonio Clavijo,Ernesto Miño,Dense Urban,2683,-1.2593265,-78.6348009,4,-111.37,CONNECTED
284,Avenida Antonio Clavijo,Granada,Residential,2686,-1.259688,-78.634896,4,-79.97,CONNECTED
285,Avenida Antonio Clavijo,Juan Francisco Montalvo,Dense Urban,2656,-1.2557893,-78.6333437,4,-133.09,CONNECTED
286,Avenida Antonio Clavijo,Manuel Isaías Sánchez,Residential,2688,-1.260385,-78.635044,4,-82.56,CONNECTED
287,Avenida Antonio Clavijo,Ramón del Valle-Inclán,Residential,2697,-1.2617435,-78.635395,6,-96.41,CONNECTED
288,Avenida Antonio Clavijo,Redondel de la Policía,Residential,2650,-1.2545893,-78.6329706,2,-92.94,CONNECTED
289,Avenida Antonio Clavijo,Redondel de la Policía,Residential,2651,-1.2546366,-78.6328764,9,-99.15,CONNECTED
290,Avenida Antonio Clavijo,Sergio Núñez,Dense Urban,2662,-1.2565921,-78.633706,4,-110.35,CONNECTED
291,Avenida Antonio Clavijo,Tenerife,Dense Urban,2665,-1.2569826,-78.6338505,4,-109.03,CONNECTED
292,Avenida Archidona,Avenida El Rey,Dense Urban,2612,-1.2430366,-78.6224785,13,-112.24,CONNECTED
293,Avenida Archidona,Avenida Quis Quis,Dense Urban,2615,-1.2448768,-78.6244342,13,-121.74,CONNECTED
294,Avenida Archidona,Tomás Sevilla,Dense Urban,2612,-1.2435183,-78.6229463,13,-114.7,CONNECTED
295,Avenida Arquitecto Pedro Vásconez Sevilla,Avenida Rodrigo Pachano,Residential,2564,-1.225865,-78.5998654,7,-88.26,CONNECTED
296,Avenida Arquitecto Pedro Vásconez Sevilla,Avenida Rodrigo Pachano,Residential,2564,-1.2258157,-78.5997809,7,-88.51,CONNECTED
297,Avenida Arquitecto Pedro Vásconez Sevilla,Avenida Rodrigo Pachano,Residential,2564,-1.2257878,-78.5998755,7,-88.39,CONNECTED
298,Avenida Arquitecto Pedro Vásconez Sevilla,Avenida Rodrigo Pachano,Residential,2565,-1.2257441,-78.5997908,7,-88.62,CONNECTED
299,Avenida Atahualpa,Avenida De Los Shyris,Residential,2639,-1.2503654,-78.6324851,2,-81.37,CONNECTED
300,Avenida Atahualpa,Avenida De Los Shyris,Residential,2639,-1.250327,-78.6325739,2,-81.38,CONNECTED
301,Avenida Atahualpa,Avenida Jácome Clavijo,Dense Urban,2677,-1.2593796,-78.6294578,4,-127.69,CONNECTED
302,Avenida Atahualpa,Avenida Jácome Clavijo,Dense Urban,2677,-1.2593165,-78.6295008,4,-127.54,CONNECTED
303,Avenida Atahualpa,Avenida Leónidas Plaza Gutiérrez,Dense Urban,2681,-1.2609415,-78.6286856,4,-130.54,CONNECTED
304,Avenida Atahualpa,Avenida Leónidas Plaza Gutiérrez,Dense Urban,2681,-1.2609361,-78.6285865,4,-130.71,CONNECTED
305,Avenida Atahualpa,Avenida Leónidas Plaza Gutiérrez,Dense Urban,2683,-1.2612278,-78.6286131,4,-130.93,CONNECTED
306,Avenida Atahualpa,Avenida Leónidas Plaza Gutiérrez,Dense Urban,2683,-1.2611755,-78.6285193,4,-131.04,CONNECTED
307,Avenida Atahualpa,Avenida Quis Quis,Residential,2643,-1.2524572,-78.632961,2,-88.42,CONNECTED
308,Avenida Atahualpa,Avenida Quis Quis,Residential,2644,-1.2524228,-78.6328615,2,-88.25,CONNECTED
309,Avenida Atahualpa,Avenida Rumiñahui,Dense Urban,2658,-1.2560401,-78.6319269,9,-135.29,CONNECTED
310,Avenida Atahualpa,Avenida Rumiñahui,Dense Urban,2658,-1.255989,-78.6319793,9,-135.32,CONNECTED
311,Avenida Atahualpa,Avenida Rumiñahui,Dense Urban,2659,-1.2559783,-78.6318688,9,-135.17,CONNECTED
312,Avenida Atahualpa,Avenida Rumiñahui,Dense Urban,2659,-1.2559145,-78.6319077,9,-135.18,CONNECTED
313,Avenida Atahualpa,Avenida Tupac Yupanqui,Dense Urban,2628,-1.2473253,-78.6310908,2,-63.74,CONNECTED
314,Avenida Atahualpa,Cacha,Dense Urban,2629,-1.2474224,-78.6312003,2,-17.68,CONNECTED
315,Avenida Atahualpa,Calicuchima,Residential,2637,-1.2494231,-78.6323129,2,-76.67,CONNECTED
316,Avenida Atahualpa,Cañaris,Dense Urban,2638,-1.2485674,-78.6321489,2,-102,CONNECTED
317,Avenida Atahualpa,César Silva,Dense Urban,2662,-1.2567939,-78.6313985,4,-121.1,CONNECTED
318,Avenida Atahualpa,Isaac Robayo,Dense Urban,2664,-1.2573791,-78.6309467,4,-122.61,CONNECTED
319,Avenida Atahualpa,La Pinta,Dense Urban,2638,-1.2487577,-78.632285,2,-104.4,CONNECTED
320,Avenida Atahualpa,Marcos Montalvo,Dense Urban,2687,-1.2616088,-78.6285364,6,-114.49,CONNECTED
321,Avenida Atahualpa,Nari Pillahuazo,Dense Urban,2670,-1.2583386,-78.6301856,4,-125.21,CONNECTED
322,Avenida Atahualpa,Puerto de Palos,Dense Urban,2629,-1.2474793,-78.6313006,2,-59.78,CONNECTED
323,Avenida Atahualpa,Redondel de la Policía,Residential,2652,-1.254634,-78.6328216,9,-99.09,CONNECTED
324,Avenida Atahualpa,Redondel de la Policía,Residential,2652,-1.2545724,-78.6327282,9,-98.96,CONNECTED
325,Avenida Atahualpa,Redondel de la Policía,Residential,2652,-1.2543542,-78.6327602,9,-98.91,CONNECTED
326,Avenida Atahualpa,Unnamed Road,Residential,2637,-1.2493726,-78.6323099,2,-76.39,CONNECTED
327,Avenida Atahualpa,Unnamed Road,Residential,2637,-1.249369,-78.6323975,2,-76.65,CONNECTED
328,Avenida Atahualpa,Unnamed Road,Dense Urban,2653,-1.2549696,-78.6325219,9,-135.47,CONNECTED
329,Avenida Atahualpa,Unnamed Road,Dense Urban,2681,-1.2609978,-78.6286702,4,-130.62,CONNECTED
330,Avenida Atahualpa,Unnamed Road,Dense Urban,2682,-1.2609964,-78.6285697,4,-130.79,CONNECTED
331,Avenida Atahualpa,Unnamed Road,Dense Urban,2682,-1.2606423,-78.6287041,4,-130.24,CONNECTED
332,Avenida Bellavista,Avenida Bolivariana,Dense Urban,2618,-1.2441019,-78.6228985,13,-126.89,CONNECTED
333,Avenida Bellavista,Puente Quis Quis,Dense Urban,2619,-1.2443627,-78.6238678,13,-131.6,CONNECTED
334,Avenida Bolivariana,Avenida El Rey,Dense Urban,2616,-1.244012,-78.6228175,13,-114.34,CONNECTED
335,Avenida Bolivariana,Avenida Galo Vela,Residential,2643,-1.2583685,-78.6144741,9,-97.68,CONNECTED
336,Avenida Bolivariana,Avenida Galo Vela,Residential,2643,-1.2583481,-78.6143715,9,-97.76,CONNECTED
337,Avenida Bolivariana,Avenida Galo Vela,Residential,2643,-1.2582884,-78.6145103,9,-97.57,CONNECTED
338,Avenida Bolivariana,Avenida Galo Vela,Residential,2643,-1.258258,-78.6143998,9,-97.65,CONNECTED
339,Avenida Bolivariana,Avenida Victor Hugo,Residential,2652,-1.2603417,-78.613771,9,-100.04,CONNECTED
340,Avenida Bolivariana,Avenida Victor Hugo,Residential,2652,-1.260251,-78.6138057,9,-99.93,CONNECTED
341,Avenida Bolivariana,Avenida Victor Hugo,Residential,2653,-1.2602926,-78.6136735,9,-100.07,CONNECTED
342,Avenida Bolivariana,Avenida Victor Hugo,Residential,2653,-1.2602124,-78.6137085,9,-99.97,CONNECTED
343,Avenida Bolivariana,Azuay,Dense Urban,2617,-1.2453926,-78.6220897,13,-114.04,CONNECTED
344,Avenida Bolivariana,Azuay,Dense Urban,2617,-1.2452884,-78.6221619,13,-113.99,CONNECTED
345,Avenida Bolivariana,Baltra,Residential,2622,-1.2519196,-78.6175613,2,-102.18,CONNECTED
346,Avenida Bolivariana,Cataguango,Residential,2641,-1.257013,-78.6146496,9,-96.22,CONNECTED
347,Avenida Bolivariana,Chiles,Dense Urban,2616,-1.2467684,-78.6209863,13,-116.55,CONNECTED
348,Avenida Bolivariana,Chiles,Dense Urban,2617,-1.2468355,-78.6210961,13,-117.02,CONNECTED
349,Avenida Bolivariana,Chimul,Dense Urban,2615,-1.2443728,-78.622547,13,-113.44,CONNECTED
350,Avenida Bolivariana,Española,Dense Urban,2610,-1.2499227,-78.6188704,13,-126.52,CONNECTED
351,Avenida Bolivariana,Eugenio Espejo,Dense Urban,2616,-1.2451261,-78.6220491,13,-112.95,CONNECTED
352,Avenida Bolivariana,Genovesa,Residential,2630,-1.2525806,-78.6171118,2,-102.79,CONNECTED
353,Avenida Bolivariana,Genovesa,Residential,2631,-1.2526737,-78.6171917,2,-102.75,CONNECTED
354,Avenida Bolivariana,Gualaceo,Dense Urban,2612,-1.248786,-78.6198011,13,-123.22,CONNECTED
355,Avenida Bolivariana,Isabela,Dense Urban,2615,-1.2508979,-78.6183827,13,-128.94,CONNECTED
356,Avenida Bolivariana,Leito,Residential,2644,-1.2589064,-78.6141952,9,-98.43,CONNECTED
357,Avenida Bolivariana,Marchena,Dense Urban,2616,-1.2509996,-78.6181607,13,-129.25,CONNECTED
358,Avenida Bolivariana,Morales,Residential,2647,-1.2593113,-78.6141412,9,-98.84,CONNECTED
359,Avenida Bolivariana,Paltacalo,Residential,2654,-1.2613655,-78.6133006,9,-101.21,CONNECTED
360,Avenida Bolivariana,Pan de Azucar,Dense Urban,2611,-1.2486859,-78.61971,13,-122.91,CONNECTED
361,Avenida Bolivariana,Pan de Azucar,Dense Urban,2611,-1.247848,-78.6202581,13,-120.18,CONNECTED
362,Avenida Bolivariana,Pastaza,Dense Urban,2607,-1.2493157,-78.6194405,13,-124.79,CONNECTED
363,Avenida Bolivariana,Patate,Dense Urban,2610,-1.2497727,-78.6191268,13,-126.07,CONNECTED
364,Avenida Bolivariana,Puerto Ayora,Dense Urban,2614,-1.2473085,-78.6206225,13,-118.35,CONNECTED
365,Avenida Bolivariana,Puerto Ayora,Dense Urban,2615,-1.247557,-78.6206171,13,-119.32,CONNECTED
366,Avenida Bolivariana,San Cristóbal,Dense Urban,2610,-1.2503187,-78.6187677,13,-127.51,CONNECTED
367,Avenida Bolivariana,Seymour,Residential,2620,-1.2515021,-78.6178425,2,-101.79,CONNECTED
368,Avenida Bolivariana,Seymour,Residential,2621,-1.2515936,-78.6179312,2,-101.74,CONNECTED
369,Avenida Bolivariana,Unnamed Road,Dense Urban,2615,-1.247697,-78.620523,13,-119.77,CONNECTED
370,Avenida Bolivariana,Unnamed Road,Residential,2641,-1.2568427,-78.6146476,9,-96.06,CONNECTED
371,Avenida Bolivariana,Unnamed Road,Residential,2642,-1.2568944,-78.6148504,9,-95.87,CONNECTED
372,Avenida Bolivariana,Unnamed Road,Residential,2642,-1.2566232,-78.6147503,9,-95.73,CONNECTED
373,Avenida Bolivariana,Unnamed Road,Residential,2643,-1.25667,-78.6148838,9,-95.62,CONNECTED
374,Avenida Cevallos,Avenida Unidad Nacional,Dense Urban,2558,-1.2366308,-78.6214311,3,-119.22,CONNECTED
375,Avenida Cevallos,Avenida Unidad Nacional,Dense Urban,2559,-1.2366935,-78.6215081,3,-119.28,CONNECTED
376,Avenida Cevallos,Avenida Unidad Nacional,Dense Urban,2559,-1.2366289,-78.6215465,3,-118.98,CONNECTED
377,Avenida Cevallos,Avenida Unidad Nacional,Dense Urban,2559,-1.2365624,-78.6214662,3,-118.92,CONNECTED
378,Avenida Cevallos,Avenida de las Américas,Dense Urban,2545,-1.2325527,-78.6185921,3,-122.06,CONNECTED
379,Avenida Cevallos,Avenida de las Américas,Dense Urban,2545,-1.2325286,-78.6185151,3,-122.32,CONNECTED
380,Avenida Cevallos,Eloy Alfaro,Dense Urban,2573,-1.2400784,-78.6252741,11,-99.2,CONNECTED
381,Avenida Cevallos,Eugenio Espejo,Dense Urban,2576,-1.2405184,-78.6256413,11,-92.3,CONNECTED
382,Avenida Cevallos,Eugenio Espejo,Dense Urban,2576,-1.2404667,-78.625681,11,-91.46,CONNECTED
383,Avenida Cevallos,Filomentor Cuesta,Dense Urban,2556,-1.235996,-78.6208637,3,-118.53,CONNECTED
384,Avenida Cevallos,Francisco Flor,Dense Urban,2583,-1.245401,-78.6308536,11,-126.57,CONNECTED
385,Avenida Cevallos,Guayaquil,Dense Urban,2581,-1.2446187,-78.6300124,11,-123.43,CONNECTED
386,Avenida Cevallos,Guayaquil,Dense Urban,2581,-1.2445884,-78.6300369,11,-123.41,CONNECTED
387,Avenida Cevallos,Joaquín Ayllón,Dense Urban,2572,-1.2381751,-78.6231868,11,-118.32,CONNECTED
388,Avenida Cevallos,Joaquín Ayllón,Dense Urban,2572,-1.2381436,-78.6232099,11,-118.32,CONNECTED
389,Avenida Cevallos,Joaquín Lalama,Dense Urban,2577,-1.2413365,-78.62656,11,-93.16,CONNECTED
390,Avenida Cevallos,Joaquín Lalama,Dense Urban,2577,-1.2413028,-78.6265926,11,-92.6,CONNECTED
391,Avenida Cevallos,José Joaquín de Olmedo,Dense Urban,2584,-1.2451043,-78.6305391,11,-125.46,CONNECTED
392,Avenida Cevallos,José Joaquín de Olmedo,Dense Urban,2584,-1.2450725,-78.630566,11,-125.44,CONNECTED
393,Avenida Cevallos,Juan León Mera,Dense Urban,2579,-1.2423342,-78.6276527,11,-108.51,CONNECTED
394,Avenida Cevallos,Juan León Mera,Dense Urban,2580,-1.2423694,-78.6276238,11,-108.62,CONNECTED
395,Avenida Cevallos,Juan Montalvo,Dense Urban,2578,-1.242899,-78.628183,11,-113.41,CONNECTED
396,Avenida Cevallos,Juan Montalvo,Dense Urban,2579,-1.2428629,-78.6282149,11,-113.36,CONNECTED
397,Avenida Cevallos,Luis A. Martínez,Dense Urban,2576,-1.241799,-78.6270215,11,-101.45,CONNECTED
398,Avenida Cevallos,Luis A. Martínez,Dense Urban,2576,-1.2417488,-78.6270599,11,-101.1,CONNECTED
399,Avenida Cevallos,Manuela Cañizares,Dense Urban,2573,-1.2385407,-78.623623,11,-115.8,CONNECTED
400,Avenida Cevallos,Manuela Cañizares,Dense Urban,2574,-1.2385639,-78.623603,11,-115.82,CONNECTED
401,Avenida Cevallos,Mariano Castillo,Dense Urban,2580,-1.2434736,-78.6287899,11,-117.45,CONNECTED
402,Avenida Cevallos,Mariano Castillo,Dense Urban,2580,-1.243418,-78.6288043,11,-117.29,CONNECTED
403,Avenida Cevallos,Mariano Eguez,Dense Urban,2581,-1.2409554,-78.6261258,11,-86.82,CONNECTED
404,Avenida Cevallos,Mariano Eguez,Dense Urban,2581,-1.2409032,-78.626155,11,-85.08,CONNECTED
405,Avenida Cevallos,Pasaje José E. Rodo,Dense Urban,2579,-1.2443021,-78.6297292,11,-122.1,CONNECTED
406,Avenida Cevallos,Quito,Dense Urban,2579,-1.2440226,-78.6293791,11,-120.59,CONNECTED
407,Avenida Cevallos,Quito,Dense Urban,2579,-1.2439753,-78.6293843,11,-120.47,CONNECTED
408,Avenida Cevallos,Tomás Sevilla,Dense Urban,2572,-1.2399901,-78.6251162,11,-101.39,CONNECTED
409,Avenida Cevallos,Tomás Sevilla,Dense Urban,2572,-1.2397326,-78.6249094,11,-104.42,CONNECTED
410,Avenida Cevallos,Tomás Sevilla,Dense Urban,2573,-1.2399653,-78.6251461,11,-101.16,CONNECTED
411,Avenida Cevallos,Unnamed Road,Dense Urban,2543,-1.2338249,-78.6184493,12,-120.62,CONNECTED
412,Avenida Cevallos,Vargas Torres,Dense Urban,2563,-1.2375643,-78.6224866,3,-133,CONNECTED
413,Avenida Cevallos,Vargas Torres,Dense Urban,2563,-1.2375173,-78.6225254,3,-132.81,CONNECTED
414,Avenida Cevallos,Vicente Maldonado,Dense Urban,2572,-1.2389451,-78.6240437,11,-112.79,CONNECTED
415,Avenida Cevallos,Vicente Maldonado,Dense Urban,2573,-1.2389749,-78.6240263,11,-112.78,CONNECTED
416,Avenida De Los Shyris,Bartolomé Ruiz,Residential,2643,-1.251283,-78.636208,2,-90.78,CONNECTED
417,Avenida De Los Shyris,Cádiz,Residential,2649,-1.2523433,-78.6380789,2,-94.83,CONNECTED
418,Avenida De Los Shyris,Cádiz,Residential,2649,-1.2521807,-78.6378709,2,-94.39,CONNECTED
419,Avenida De Los Shyris,Doce de Octubre,Residential,2637,-1.250551,-78.63408,2,-85.27,CONNECTED
420,Avenida De Los Shyris,Hernando De Luque,Residential,2654,-1.2529717,-78.6388577,9,-104.59,CONNECTED
421,Avenida De Los Shyris,La Niña,Residential,2639,-1.2502243,-78.6331581,2,-82.24,CONNECTED
422,Avenida De Los Shyris,Ojeda,Residential,2650,-1.2517068,-78.6373007,2,-93.07,CONNECTED
423,Avenida De Los Shyris,Rodrigo De Triana,Residential,2640,-1.250907,-78.635115,2,-88.17,CONNECTED
424,Avenida De Los Shyris,Santa María,Residential,2634,-1.250477,-78.6338842,2,-84.65,CONNECTED
425,Avenida El Rey,Avenida Los Andes,Dense Urban,2602,-1.2415277,-78.6207983,13,-108.09,CONNECTED
426,Avenida El Rey,Camino del Rey,Dense Urban,2573,-1.2376935,-78.6197405,11,-128.18,CONNECTED
427,Avenida El Rey,Camino del Rey,Dense Urban,2573,-1.2375857,-78.6197792,11,-128.2,CONNECTED
428,Avenida El Rey,Carihuayrazo,Dense Urban,2611,-1.2422422,-78.621431,13,-107.33,CONNECTED
429,Avenida El Rey,Carihuayrazo,Dense Urban,2611,-1.2421336,-78.621433,13,-107.84,CONNECTED
430,Avenida El Rey,Carihuayrazo,Dense Urban,2613,-1.2431157,-78.6224108,13,-111.78,CONNECTED
431,Avenida El Rey,Cayambe,Dense Urban,2591,-1.2392232,-78.6201767,13,-119.12,CONNECTED
432,Avenida El Rey,Corazón,Dense Urban,2604,-1.2416674,-78.6207986,13,-107.15,CONNECTED
433,Avenida El Rey,Cotacachi,Dense Urban,2613,-1.2428256,-78.6222378,13,-111.01,CONNECTED
434,Avenida El Rey,Floreana,Dense Urban,2578,-1.2383207,-78.6200112,11,-127.07,CONNECTED
435,Avenida El Rey,Montes del Cajas,Dense Urban,2613,-1.2427725,-78.6220465,13,-109.87,CONNECTED
436,Avenida El Rey,Mul Mul,Dense Urban,2572,-1.2375345,-78.6196323,11,-128.54,CONNECTED
437,Avenida El Rey,Napo Galeras,Dense Urban,2600,-1.2414679,-78.6206466,13,-107.96,CONNECTED
438,Avenida El Rey,Quispicacha,Dense Urban,2600,-1.2407472,-78.6203988,13,-112.04,CONNECTED
439,Avenida El Rey,Redondel de Cumandá,Dense Urban,2556,-1.2362168,-78.618933,12,-120.04,CONNECTED
440,Avenida El Rey,Redondel de Cumandá,Dense Urban,2556,-1.2362139,-78.6188259,12,-119.64,CONNECTED
441,Avenida El Rey,Teligote,Dense Urban,2593,-1.2397018,-78.6201797,13,-117.14,CONNECTED
442,Avenida El Rey,Verdeloma,Dense Urban,2604,-1.2416126,-78.620869,13,-107.81,CONNECTED
443,Avenida Galo Vela,Estación Charles Darwin,Residential,2644,-1.260765,-78.61084,9,-102.49,CONNECTED
444,Avenida Galo Vela,Gran Colombia,Residential,2644,-1.2592506,-78.6118722,9,-100.71,CONNECTED
445,Avenida Galo Vela,Gran Colombia,Residential,2645,-1.2592875,-78.6119427,9,-100.68,CONNECTED
446,Avenida Galo Vela,Jambelí,Residential,2644,-1.2608407,-78.6108998,9,-102.5,CONNECTED
447,Avenida Galo Vela,La Rotonda,Park/Periphery,2653,-1.2615569,-78.6096558,9,-125.53,CONNECTED
448,Avenida Galo Vela,Mitad del Mundo,Park/Periphery,2648,-1.2613708,-78.6099744,9,-125.18,CONNECTED
449,Avenida Galo Vela,Mitad del Mundo,Park/Periphery,2648,-1.2612984,-78.6099359,9,-125.16,CONNECTED
450,Avenida Galo Vela,Paltacalo,Residential,2640,-1.2602928,-78.6114272,9,-101.76,CONNECTED
451,Avenida Galo Vela,Punin,Residential,2649,-1.2611403,-78.6104037,9,-103.02,CONNECTED
452,Avenida Galo Vela,Yahuarcocha,Residential,2644,-1.2585949,-78.6133327,9,-98.95,CONNECTED
453,Avenida González Suárez,Avenida Unidad Nacional,Dense Urban,2542,-1.2333809,-78.6234629,3,-80.33,CONNECTED
454,Avenida González Suárez,Avenida Unidad Nacional,Dense Urban,2543,-1.2333945,-78.6233422,3,-82.83,CONNECTED
455,Avenida González Suárez,Avenida Unidad Nacional,Dense Urban,2543,-1.2333299,-78.6233847,3,-79.84,CONNECTED
456,Avenida González Suárez,Avenida de las Américas,Dense Urban,2546,-1.2327888,-78.6195681,3,-118.43,CONNECTED
457,Avenida González Suárez,Avenida de las Américas,Dense Urban,2547,-1.2329756,-78.6194683,3,-118.82,CONNECTED
458,Avenida González Suárez,Bolivar,Dense Urban,2545,-1.232721,-78.6200383,3,-116.41,CONNECTED
459,Avenida González Suárez,César Borja (Italia),Dense Urban,2541,-1.232581,-78.6205865,3,-113.76,CONNECTED
460,Avenida González Suárez,Obispo Joaquin Riera,Dense Urban,2544,-1.2332864,-78.6229807,3,-88.97,CONNECTED
461,Avenida González Suárez,Pedro Carbo,Dense Urban,2539,-1.2329577,-78.6220752,3,-102.33,CONNECTED
462,Avenida González Suárez,Pedro Carbo,Dense Urban,2540,-1.2330338,-78.6220256,3,-102.86,CONNECTED
463,Avenida González Suárez,Redondel El Cementerio,Dense Urban,2543,-1.232628,-78.6203256,3,-115.08,CONNECTED
464,Avenida González Suárez,Redondel El Cementerio,Dense Urban,2544,-1.2326835,-78.620202,3,-115.66,CONNECTED
465,Avenida González Suárez,Redondel El Cementerio,Dense Urban,2545,-1.2327988,-78.6202381,3,-115.44,CONNECTED
466,Avenida González Suárez,Redondel El Cementerio,Dense Urban,2545,-1.2327887,-78.6203586,3,-114.84,CONNECTED
467,Avenida González Suárez,Redondel de Cumandá,Dense Urban,2554,-1.2358498,-78.6189553,12,-120.17,CONNECTED
468,Avenida González Suárez,Redondel de Cumandá,Residential,2554,-1.2358403,-78.6188452,12,-85.64,CONNECTED
469,Avenida Indoamerica,Avenida de las Américas,Dense Urban,2531,-1.2380341,-78.6130735,12,-109.46,CONNECTED
470,Avenida Indoamerica,Barranquilla,Residential,2555,-1.2362039,-78.6012746,7,-92.06,CONNECTED
471,Avenida Indoamerica,Buenos Aires,Residential,2530,-1.2366149,-78.6052155,12,-96.12,CONNECTED
472,Avenida Indoamerica,Buenos Aires,Residential,2533,-1.2368551,-78.6051223,12,-96.28,CONNECTED
473,Avenida Indoamerica,Calle Europa,Residential,2492,-1.2341254,-78.6102982,12,-112.23,CONNECTED
474,Avenida Indoamerica,Calle Europa,Residential,2493,-1.2341095,-78.6103691,12,-111.93,CONNECTED
475,Avenida Indoamerica,Cártago,Residential,2544,-1.2372218,-78.6030614,12,-99.07,CONNECTED
476,Avenida Indoamerica,Cártago,Residential,2547,-1.2371612,-78.6030758,7,-93.2,CONNECTED
477,Avenida Indoamerica,Encarnación,Residential,2550,-1.2317359,-78.6013396,7,-80.55,CONNECTED
478,Avenida Indoamerica,Filadelfia,Residential,2549,-1.2317272,-78.6012482,7,-80.83,CONNECTED
479,Avenida Indoamerica,Groenlandia,Residential,2506,-1.2356574,-78.6113105,5,-96.3,CONNECTED
480,Avenida Indoamerica,Guanajuato,Residential,2549,-1.2330333,-78.6011658,7,-84.86,CONNECTED
481,Avenida Indoamerica,Guanajuato,Residential,2550,-1.2330294,-78.6012817,7,-84.63,CONNECTED
482,Avenida Indoamerica,Guantánamo,Residential,2551,-1.2346873,-78.6011786,7,-89,CONNECTED
483,Avenida Indoamerica,Guantánamo,Residential,2551,-1.234658,-78.6010873,7,-89.03,CONNECTED
484,Avenida Indoamerica,Juticalpa,Residential,2542,-1.2284653,-78.6001084,7,-101.9,CONNECTED
485,Avenida Indoamerica,La Plata,Residential,2533,-1.229275,-78.6010661,7,-99.39,CONNECTED
486,Avenida Indoamerica,Pasaje Domingo Romano,Residential,2489,-1.2302472,-78.6097289,7,-118.38,CONNECTED
487,Avenida Indoamerica,Pasaje Domingo Romano,Residential,2489,-1.2301592,-78.6097249,7,-118.36,CONNECTED
488,Avenida Indoamerica,Pasaje Las Minas,Residential,2504,-1.2356492,-78.6112366,5,-96.26,CONNECTED
489,Avenida Indoamerica,Pasteur,Residential,2481,-1.2332868,-78.6102995,12,-114.72,CONNECTED
490,Avenida Indoamerica,Pasteur,Residential,2484,-1.2333156,-78.6103968,12,-114.13,CONNECTED
491,Avenida Indoamerica,Puerto Mont,Residential,2549,-1.2319699,-78.601225,7,-81.63,CONNECTED
492,Avenida Indoamerica,Quezalterango,Residential,2501,-1.2308856,-78.6079736,5,-100.91,CONNECTED
493,Avenida Indoamerica,Redondel Juan Montalvo,Dense Urban,2527,-1.2384975,-78.6133426,12,-129.22,CONNECTED
494,Avenida Indoamerica,Redondel Juan Montalvo,Dense Urban,2531,-1.2383387,-78.6132764,12,-110.44,CONNECTED
495,Avenida Indoamerica,Redondel Juan Montalvo,Dense Urban,2531,-1.2383045,-78.6132988,12,-110.16,CONNECTED
496,Avenida Indoamerica,Río de Janeiro,Residential,2501,-1.2311743,-78.607801,5,-100.59,CONNECTED
497,Avenida Indoamerica,Río de Janeiro,Residential,2504,-1.2311128,-78.6077508,5,-100.65,CONNECTED
498,Avenida Indoamerica,San Juan,Residential,2556,-1.2362161,-78.6012095,7,-92.13,CONNECTED
499,Avenida Indoamerica,Santa Ana,Residential,2551,-1.2323048,-78.6012086,7,-82.68,CONNECTED
500,Avenida Indoamerica,Unnamed Road,Residential,2474,-1.2296231,-78.6128498,8,-119.02,CONNECTED
501,Avenida Indoamerica,Unnamed Road,Residential,2478,-1.2329329,-78.6105898,12,-114.99,CONNECTED
502,Avenida Indoamerica,Unnamed Road,Residential,2491,-1.2303356,-78.6093765,7,-117.42,CONNECTED
503,Avenida Indoamerica,Unnamed Road,Residential,2533,-1.2372573,-78.6047449,12,-96.88,CONNECTED
504,Avenida Indoamerica,Unnamed Road,Residential,2536,-1.2294671,-78.6011725,7,-97.89,CONNECTED
505,Avenida Jácome Clavijo,Gustavo Eguez,Dense Urban,2691,-1.2608909,-78.6304822,6,-120.33,CONNECTED
506,Avenida Jácome Clavijo,Gustavo Eguez,Dense Urban,2691,-1.2608469,-78.6304058,6,-120.01,CONNECTED
507,Avenida Jácome Clavijo,Pasaje Moreno Loor,Dense Urban,2680,-1.2601027,-78.6297795,4,-127.64,CONNECTED
508,Avenida Jácome Clavijo,Pasaje Moreno Loor,Dense Urban,2680,-1.2600475,-78.6298168,4,-127.5,CONNECTED
509,Avenida Jácome Clavijo,Rodrigo Vela Barahona,Dense Urban,2690,-1.2608538,-78.6305742,6,-120.61,CONNECTED
510,Avenida Jácome Clavijo,Rodrigo Vela Barahona,Dense Urban,2690,-1.2608004,-78.6305081,6,-120.32,CONNECTED
511,Avenida Jácome Clavijo,Unnamed Road,Dense Urban,2677,-1.2594389,-78.629538,4,-127.56,CONNECTED
512,Avenida Jácome Clavijo,Unnamed Road,Dense Urban,2677,-1.2593737,-78.6295856,4,-127.4,CONNECTED
513,Avenida Leónidas Plaza Gutiérrez,Camilo Ponce,Dense Urban,2698,-1.2611766,-78.6263396,6,-104.28,CONNECTED
514,Avenida Leónidas Plaza Gutiérrez,Camilo Ponce,Dense Urban,2698,-1.2611088,-78.6263327,6,-103.61,CONNECTED
515,Avenida Leónidas Plaza Gutiérrez,Isidro Ayora,Dense Urban,2698,-1.2611971,-78.6254521,6,-105.79,CONNECTED
516,Avenida Leónidas Plaza Gutiérrez,Manuel de Ascazubi,Dense Urban,2698,-1.261115,-78.6270869,6,-105.77,CONNECTED
517,Avenida Leónidas Plaza Gutiérrez,Manuel de Ascazubi,Dense Urban,2698,-1.2610405,-78.6270811,6,-105.16,CONNECTED
518,Avenida Leónidas Plaza Gutiérrez,Martinez Mera,Dense Urban,2696,-1.261297,-78.625094,6,-107.87,CONNECTED
519,Avenida Leónidas Plaza Gutiérrez,Martinez Mera,Dense Urban,2696,-1.2612356,-78.6250916,6,-107.47,CONNECTED
520,Avenida Leónidas Plaza Gutiérrez,Unnamed Road,Dense Urban,2686,-1.2609999,-78.6283214,6,-111.35,CONNECTED
521,Avenida Leónidas Plaza Gutiérrez,Unnamed Road,Dense Urban,2694,-1.2613511,-78.6246399,6,-110.1,CONNECTED
522,Avenida Leónidas Plaza Gutiérrez,Unnamed Road,Dense Urban,2694,-1.261282,-78.6246325,6,-109.77,CONNECTED
523,Avenida Leónidas Plaza Gutiérrez,Vicente Ramón Roca,Dense Urban,2691,-1.2610535,-78.6278014,6,-108.87,CONNECTED
524,Avenida Leónidas Plaza Gutiérrez,Vicente Ramón Roca,Dense Urban,2691,-1.260973,-78.6277946,6,-108.42,CONNECTED
525,Avenida Los Andes,Calle Altar,Dense Urban,2602,-1.2397136,-78.6212177,13,-118.2,CONNECTED
526,Avenida Los Andes,Cayambe,Dense Urban,2603,-1.2400891,-78.6209326,13,-116.21,CONNECTED
527,Avenida Los Andes,Cotacachi,Dense Urban,2596,-1.2395528,-78.6220026,13,-120.13,CONNECTED
528,Avenida Los Andes,Iliniza,Dense Urban,2594,-1.2414199,-78.6235923,11,-113.72,CONNECTED
529,Avenida Los Andes,Sangay,Dense Urban,2598,-1.239907,-78.6230519,11,-115.94,CONNECTED
530,Avenida Los Andes,Tomás Sevilla,Dense Urban,2591,-1.2416957,-78.6236825,11,-113.8,CONNECTED
531,Avenida Los Andes,Tomás Sevilla,Dense Urban,2591,-1.2415784,-78.6237054,11,-113.43,CONNECTED
532,Avenida Los Chasquis,Avenida los Chasquis,Dense Urban,2646,-1.2505012,-78.6222609,9,-89.5,CONNECTED
533,Avenida Los Chasquis,Guayas,Dense Urban,2632,-1.2480234,-78.6217472,2,-132.53,CONNECTED
534,Avenida Los Chasquis,Los Incas,Dense Urban,2638,-1.2485847,-78.6218651,9,-128.66,CONNECTED
535,Avenida Los Chasquis,Oriente,Dense Urban,2620,-1.2468768,-78.6215064,13,-130.47,CONNECTED
536,Avenida Los Chasquis,Puerto Ayora,Dense Urban,2641,-1.2488344,-78.6219176,9,-108.86,CONNECTED
537,Avenida Los Guaytambos,Avenida Rodrigo Pachano,Residential,2542,-1.234599,-78.6315079,3,-94.18,CONNECTED
538,Avenida Los Guaytambos,Avenida Rodrigo Pachano,Residential,2543,-1.2345371,-78.6313605,3,-93.9,CONNECTED
539,Avenida Los Guaytambos,Avenida Rodrigo Pachano,Residential,2543,-1.2344864,-78.6314222,3,-93.99,CONNECTED
540,Avenida Los Guaytambos,Avenida Rodrigo Pachano,Residential,2543,-1.2344624,-78.6312631,3,-93.71,CONNECTED
541,Avenida Los Guaytambos,Calle Los Olivos,Residential,2543,-1.2346672,-78.6317877,3,-94.66,CONNECTED
542,Avenida Los Guaytambos,Juan Montalvo,Residential,2552,-1.2375031,-78.6336431,3,-98.49,CONNECTED
543,Avenida Los Guaytambos,Juan Montalvo,Residential,2553,-1.2375863,-78.6336802,3,-98.58,CONNECTED
544,Avenida Los Guaytambos,Juan Montalvo,Residential,2554,-1.2375548,-78.6337586,3,-98.65,CONNECTED
545,Avenida Los Guaytambos,Juan Montalvo,Residential,2554,-1.2374715,-78.6337205,3,-98.56,CONNECTED
546,Avenida Los Guaytambos,La Delicia,Residential,2557,-1.238986,-78.6342939,3,-99.98,CONNECTED
547,Avenida Los Guaytambos,Las Aceitunas,Residential,2570,-1.2414157,-78.6360348,11,-96.6,CONNECTED
548,Avenida Los Guaytambos,Las Aceitunas,Residential,2570,-1.2413519,-78.63609,11,-96.67,CONNECTED
549,Avenida Los Guaytambos,Las Aguacollas,Residential,2559,-1.2389176,-78.6343833,3,-100.03,CONNECTED
550,Avenida Los Guaytambos,Las Berenjenas,Residential,2545,-1.2349665,-78.6321103,3,-95.28,CONNECTED
551,Avenida Los Guaytambos,Las Berenjenas,Residential,2546,-1.2349166,-78.6321708,3,-95.35,CONNECTED
552,Avenida Los Guaytambos,Las Cerezas,Residential,2584,-1.2446289,-78.6390267,11,-101.04,CONNECTED
553,Avenida Los Guaytambos,Las Chirimoyas,Residential,2553,-1.2370274,-78.6334047,3,-97.97,CONNECTED
554,Avenida Los Guaytambos,Las Chirimoyas,Residential,2554,-1.2369811,-78.6334795,3,-98.03,CONNECTED
555,Avenida Los Guaytambos,Las Frambuesas,Residential,2587,-1.2458288,-78.6399896,11,-102.36,CONNECTED
556,Avenida Los Guaytambos,Las Manzanas,Residential,2562,-1.2405113,-78.6353714,3,-101.8,CONNECTED
557,Avenida Los Guaytambos,Las Manzanas,Residential,2563,-1.2404847,-78.6354795,10,-109.39,CONNECTED
558,Avenida Los Guaytambos,Las Olivas,Residential,2543,-1.2347367,-78.631751,3,-94.63,CONNECTED
559,Avenida Los Guaytambos,Las Zarzamoras,Dense Urban,2581,-1.2425849,-78.6374624,11,-135.29,CONNECTED
560,Avenida Los Guaytambos,Los Aguacates,Residential,2580,-1.2433447,-78.6379892,11,-99.54,CONNECTED
561,Avenida Los Guaytambos,Los Aguacates,Residential,2580,-1.2433012,-78.6380427,11,-99.59,CONNECTED
562,Avenida Los Guaytambos,Los Dátiles,Residential,2579,-1.2439261,-78.6384835,11,-100.26,CONNECTED
563,Avenida Los Guaytambos,Los Higos,Residential,2580,-1.2437215,-78.6384214,11,-100.13,CONNECTED
564,Avenida Los Guaytambos,Los Maracuyas,Residential,2586,-1.2455312,-78.6397412,11,-102.03,CONNECTED
565,Avenida Los Guaytambos,Los Membrillos,Dense Urban,2579,-1.2426776,-78.637412,11,-135.25,CONNECTED
566,Avenida Los Guaytambos,Reina Claudia,Residential,2576,-1.2421985,-78.6367453,11,-97.73,CONNECTED
567,Avenida Los Guaytambos,Unnamed Road,Residential,2569,-1.2418546,-78.6364629,10,-113.38,CONNECTED
568,Avenida Los Héroes,Avenida los Chasquis,Dense Urban,2693,-1.2611413,-78.6244869,6,-109.75,CONNECTED
569,Avenida Los Héroes,Cacique Álvarez,Dense Urban,2685,-1.2586298,-78.6202388,1,-115.65,CONNECTED
570,Avenida Los Héroes,Gertrudiz Esparza,Dense Urban,2667,-1.2561638,-78.6170094,1,-114.15,CONNECTED
571,Avenida Los Héroes,Isidro Barriga,Dense Urban,2674,-1.2568746,-78.6177632,1,-110.87,CONNECTED
572,Avenida Los Héroes,Javier Ascazubi,Dense Urban,2691,-1.2602451,-78.6229929,6,-115.06,CONNECTED
573,Avenida Los Héroes,Joaquin Tobar,Dense Urban,2668,-1.2565761,-78.6172761,1,-111.95,CONNECTED
574,Avenida Los Héroes,José García,Dense Urban,2680,-1.2581776,-78.6195752,1,-112.96,CONNECTED
575,Avenida Los Héroes,José Mires,Dense Urban,2676,-1.2577104,-78.6189332,1,-110.97,CONNECTED
576,Avenida Los Héroes,José de Antepara,Dense Urban,2685,-1.2591581,-78.6211952,1,-119.5,CONNECTED
577,Avenida Los Héroes,Letamendi,Dense Urban,2669,-1.2572749,-78.6183234,1,-110.23,CONNECTED
578,Avenida Los Héroes,Manuel Matheu,Dense Urban,2687,-1.2597597,-78.6223263,6,-117.77,CONNECTED
579,Avenida Los Héroes,Rosa Robalino,Dense Urban,2670,-1.2565801,-78.6173527,1,-112,CONNECTED
580,Avenida Luis Alberto Valencia,Avenida Tres Carabelas,Residential,2646,-1.2563855,-78.6158075,9,-94.16,CONNECTED
581,Avenida Luis Alberto Valencia,Avenida Victor Hugo,Residential,2669,-1.2617298,-78.6168872,1,-77.66,CONNECTED
582,Avenida Luis Alberto Valencia,Gertrudiz Esparza,Dense Urban,2654,-1.2573014,-78.6161978,1,-125.68,CONNECTED
583,Avenida Luis Alberto Valencia,Jacinto Bejarano,Residential,2649,-1.2567259,-78.6159646,9,-94.35,CONNECTED
584,Avenida Luis Alberto Valencia,Morales,Residential,2663,-1.2607219,-78.6168603,1,-70.34,CONNECTED
585,Avenida Luis Alberto Valencia,Morales,Residential,2663,-1.2606793,-78.616779,1,-69.97,CONNECTED
586,Avenida Luis Alberto Valencia,Pasaje 11,Residential,2662,-1.2600375,-78.6168023,1,-61.58,CONNECTED
587,Avenida Luis Alberto Valencia,Pasaje A,Residential,2647,-1.2565779,-78.6158981,9,-94.26,CONNECTED
588,Avenida Luis Alberto Valencia,Pasaje Guayaquil,Residential,2651,-1.2569148,-78.6160455,9,-94.48,CONNECTED
589,Avenida Luis Alberto Valencia,Rodriguez Soto,Dense Urban,2651,-1.2577528,-78.6163539,1,-122.54,CONNECTED
590,Avenida Manuela Sáenz,Goya,Residential,2693,-1.260964,-78.6396648,4,-100.8,CONNECTED
591,Avenida Manuela Sáenz,Gómez de la Serna,Residential,2686,-1.2602734,-78.6397715,4,-87.12,CONNECTED
592,Avenida Manuela Sáenz,López de Ayala,Residential,2700,-1.2618583,-78.6393228,6,-101.17,CONNECTED
593,Avenida Miraflores,Cactus,Residential,2575,-1.24522,-78.6333994,11,-94.73,CONNECTED
594,Avenida Miraflores,Hortensias,Residential,2575,-1.246358,-78.6344036,11,-96.99,CONNECTED
595,Avenida Miraflores,Margaritas,Residential,2573,-1.2499328,-78.6389371,11,-103.38,CONNECTED
596,Avenida Miraflores,Margaritas,Residential,2574,-1.2500152,-78.6388703,11,-103.38,CONNECTED
597,Avenida Miraflores,Pasaje B,Residential,2572,-1.2482564,-78.6367098,11,-100.65,CONNECTED
598,Avenida Miraflores,Pasaje Las Flores,Residential,2570,-1.248415,-78.6369891,11,-100.99,CONNECTED
599,Avenida Miraflores,Pasaje Las Madreselvas,Residential,2577,-1.2479129,-78.6360852,11,-99.87,CONNECTED
600,Avenida Miraflores,Unnamed Road,Residential,2570,-1.2485651,-78.637007,11,-101.1,CONNECTED
601,Avenida Miraflores,Unnamed Road,Residential,2570,-1.2484798,-78.6370732,11,-101.11,CONNECTED
602,Avenida Miraflores,Unnamed Road,Residential,2571,-1.2483152,-78.636805,11,-100.77,CONNECTED
603,Avenida Miraflores,Unnamed Road,Residential,2572,-1.2494317,-78.6381698,11,-102.54,CONNECTED
604,Avenida Miraflores,Unnamed Road,Residential,2572,-1.2484082,-78.6367321,11,-100.77,CONNECTED
605,Avenida Miraflores,Unnamed Road,Residential,2572,-1.2450604,-78.6328471,11,-93.8,CONNECTED
606,Avenida Miraflores,Unnamed Road,Dense Urban,2576,-1.2444833,-78.6319781,11,-127.1,CONNECTED
607,Avenida Miraflores,Unnamed Road,Park/Periphery,2578,-1.2504031,-78.639523,11,-125.81,CONNECTED
608,Avenida Miraflores,Unnamed Road,Residential,2581,-1.2480463,-78.6360399,11,-99.92,CONNECTED
609,Avenida Nassau,Avenida Rodrigo Pachano,Residential,2548,-1.2271725,-78.6035124,7,-77.78,CONNECTED
610,Avenida Nassau,Avenida Rodrigo Pachano,Residential,2548,-1.2271253,-78.6035657,7,-78.04,CONNECTED
611,Avenida Nassau,Avenida Rodrigo Pachano,Residential,2548,-1.2267415,-78.6028746,7,-80.35,CONNECTED
612,Avenida Nassau,Avenida Rodrigo Pachano,Residential,2549,-1.2266787,-78.6028835,7,-80.63,CONNECTED
613,Avenida Nassau,Barranquilla,Dense Urban,2555,-1.2321845,-78.604091,7,-111.15,CONNECTED
614,Avenida Nassau,Camaguey,Dense Urban,2556,-1.2326591,-78.6044164,7,-114.28,CONNECTED
615,Avenida Nassau,Nassau,Residential,2546,-1.2283214,-78.6033154,7,-69.33,CONNECTED
616,Avenida Nassau,Nassau,Dense Urban,2547,-1.229371,-78.602935,7,-88.75,CONNECTED
617,Avenida Nassau,Paysandú,Dense Urban,2547,-1.228375,-78.603395,7,-99.58,CONNECTED
618,Avenida Nassau,Unnamed Road,Residential,2545,-1.2269196,-78.6028426,7,-79.56,CONNECTED
619,Avenida Nassau,Unnamed Road,Dense Urban,2556,-1.231845,-78.6038931,7,-108.61,CONNECTED
620,Avenida Pasteur,Avenida Unidad Nacional,Dense Urban,2540,-1.2329841,-78.6237107,3,-60.24,CONNECTED
621,Avenida Pasteur,Avenida Unidad Nacional,Dense Urban,2540,-1.2329403,-78.6236317,3,-52.33,CONNECTED
622,Avenida Pasteur,Avenida Unidad Nacional,Dense Urban,2541,-1.2330541,-78.6236754,3,-56.82,CONNECTED
623,Avenida Pasteur,Avenida Unidad Nacional,Dense Urban,2541,-1.2330026,-78.6235939,3,-17.68,CONNECTED
624,Avenida Pasteur,Cesar Viteri,Dense Urban,2535,-1.2318571,-78.6216617,3,-108.79,CONNECTED
625,Avenida Pasteur,César Borja (Italia),Dense Urban,2532,-1.2316319,-78.6210824,3,-112.78,CONNECTED
626,Avenida Pasteur,German Abad,Dense Urban,2531,-1.2314161,-78.6207123,12,-129.39,CONNECTED
627,Avenida Pasteur,Jose Rivera,Dense Urban,2517,-1.2309139,-78.6168604,0,-150,OUTAGE
628,Avenida Pasteur,Julio Castillo,Dense Urban,2530,-1.2314602,-78.620788,12,-129.46,CONNECTED
629,Avenida Pasteur,Julio Castillo,Dense Urban,2530,-1.2314065,-78.6208233,12,-129.59,CONNECTED
630,Avenida Pasteur,Julio Enrique Paredes,Dense Urban,2520,-1.2310227,-78.6186184,0,-150,OUTAGE
631,Avenida Pasteur,Julio Enrique Paredes,Dense Urban,2521,-1.2310999,-78.6186107,0,-150,OUTAGE
632,Avenida Pasteur,Virgilio Paredes,Residential,2517,-1.2309209,-78.6175089,5,-104.38,CONNECTED
633,Avenida Pasteur,Virgilio Paredes,Residential,2519,-1.2310151,-78.6175127,5,-104.32,CONNECTED
634,Avenida Pichincha,Avenida Quis Quis,Dense Urban,2628,-1.2463508,-78.6263651,2,-121.83,CONNECTED
635,Avenida Pichincha,Avenida Quis Quis,Dense Urban,2630,-1.24645,-78.6263315,2,-121.87,CONNECTED
636,Avenida Pichincha,Avenida Rumiñahui,Dense Urban,2664,-1.251502,-78.625043,9,-114.55,CONNECTED
637,Avenida Pichincha,Avenida Rumiñahui,Dense Urban,2664,-1.2514353,-78.6250594,9,-114.59,CONNECTED
638,Avenida Pichincha,Avenida los Chasquis,Dense Urban,2687,-1.2583504,-78.624131,6,-109.49,CONNECTED
639,Avenida Pichincha,Cacique Álvarez,Dense Urban,2682,-1.2551565,-78.6246173,1,-131.22,CONNECTED
640,Avenida Pichincha,Condorazo,Dense Urban,2683,-1.2556105,-78.624553,1,-130.72,CONNECTED
641,Avenida Pichincha,Cotopaxi,Dense Urban,2655,-1.2503568,-78.6253004,9,-116.06,CONNECTED
642,Avenida Pichincha,Daquilema,Dense Urban,2682,-1.2572345,-78.624293,1,-129.05,CONNECTED
643,Avenida Pichincha,Duchicela,Dense Urban,2684,-1.2561311,-78.624463,1,-130.13,CONNECTED
644,Avenida Pichincha,Francisco de Marcos,Dense Urban,2684,-1.2562597,-78.6244436,1,-130,CONNECTED
645,Avenida Pichincha,Ignacio Indaburo,Dense Urban,2663,-1.2520213,-78.6249918,9,-114.85,CONNECTED
646,Avenida Pichincha,Imbabura,Dense Urban,2649,-1.249441,-78.625491,9,-118.15,CONNECTED
647,Avenida Pichincha,José García,Residential,2676,-1.2537987,-78.624793,1,-96.59,CONNECTED
648,Avenida Pichincha,José Mires,Dense Urban,2669,-1.2525538,-78.6249408,9,-115.58,CONNECTED
649,Avenida Pichincha,Latacunga,Dense Urban,2660,-1.250931,-78.6251885,9,-115.17,CONNECTED
650,Avenida Pichincha,Los Incas,Dense Urban,2638,-1.2484355,-78.6257674,2,-123.64,CONNECTED
651,Avenida Pichincha,Manco Capac,Residential,2679,-1.254243,-78.62475,1,-96.18,CONNECTED
652,Avenida Pichincha,Manco Capac,Residential,2679,-1.2541579,-78.6247614,1,-96.26,CONNECTED
653,Avenida Pichincha,Nari Pillahuazo,Dense Urban,2684,-1.2566819,-78.6243899,1,-129.59,CONNECTED
654,Avenida Pichincha,Sinchiroca,Dense Urban,2682,-1.2550621,-78.6246384,1,-131.34,CONNECTED
655,Avenida Pichincha,Tumbalá,Dense Urban,2647,-1.248931,-78.625623,9,-119.56,CONNECTED
656,Avenida Pichincha,Unnamed Road,Residential,2673,-1.253246,-78.624858,9,-96.04,CONNECTED
657,Avenida Pichincha,Zopozopangui,Dense Urban,2685,-1.2578115,-78.6242039,6,-111.13,CONNECTED
658,Avenida Quis Quis,Calicuchima,Dense Urban,2644,-1.2502796,-78.6308328,2,-112.91,CONNECTED
659,Avenida Quis Quis,Capac Yupanqui,Dense Urban,2632,-1.2473531,-78.6279116,2,-115.08,CONNECTED
660,Avenida Quis Quis,Capac Yupanqui,Dense Urban,2636,-1.247442,-78.627859,2,-115.34,CONNECTED
661,Avenida Quis Quis,Cañaris,Dense Urban,2643,-1.2495917,-78.6303387,2,-109.44,CONNECTED
662,Avenida Quis Quis,Cordova,Dense Urban,2657,-1.25553,-78.638285,4,-130.32,CONNECTED
663,Avenida Quis Quis,Cádiz,Residential,2658,-1.2543974,-78.6368066,4,-97.68,CONNECTED
664,Avenida Quis Quis,García Lorca,Residential,2666,-1.256635,-78.63982,4,-83.39,CONNECTED
665,Avenida Quis Quis,Huancavilcas,Dense Urban,2645,-1.2485166,-78.629083,2,-109.79,CONNECTED
666,Avenida Quis Quis,Jorge Manrique,Residential,2666,-1.256508,-78.639487,4,-82.17,CONNECTED
667,Avenida Quis Quis,Murcia,Residential,2663,-1.256076,-78.63866,4,-79.04,CONNECTED
668,Avenida Quis Quis,Nazacota Puento,Dense Urban,2626,-1.246698,-78.6269342,2,-119.6,CONNECTED
669,Avenida Quis Quis,Nazacota Puento,Dense Urban,2630,-1.2467881,-78.626895,2,-119.7,CONNECTED
670,Avenida Quis Quis,Paccha,Dense Urban,2643,-1.2482905,-78.628538,2,-112.44,CONNECTED
671,Avenida Quis Quis,Paccha,Dense Urban,2643,-1.2482455,-78.6285526,2,-112.27,CONNECTED
672,Avenida Quis Quis,Puente Quis Quis,Dense Urban,2631,-1.2456224,-78.625241,2,-125.6,CONNECTED
673,Avenida Quis Quis,Quilliscacha,Dense Urban,2636,-1.2470341,-78.6273008,2,-117.97,CONNECTED
674,Avenida Quis Quis,Quimbalembo,Dense Urban,2645,-1.2487644,-78.6296043,2,-107.59,CONNECTED
675,Avenida Quis Quis,Salamanca,Residential,2667,-1.2564361,-78.6393436,4,-81.63,CONNECTED
676,Avenida Quis Quis,Sevilla,Residential,2660,-1.254652,-78.637329,4,-78.92,CONNECTED
677,Avenida Quis Quis,Sotauro Nina,Dense Urban,2633,-1.2470622,-78.6275198,2,-117.01,CONNECTED
678,Avenida Quis Quis,Sotauro Nina,Dense Urban,2636,-1.2471479,-78.6274799,2,-117.16,CONNECTED
679,Avenida Quis Quis,Toledo,Residential,2657,-1.254117,-78.6362628,4,-99.02,CONNECTED
680,Avenida Quis Quis,Unnamed Road,Dense Urban,2646,-1.2510458,-78.6313818,2,-116.71,CONNECTED
681,Avenida Quis Quis,Unnamed Road,Residential,2653,-1.253466,-78.634957,9,-101.1,CONNECTED
682,Avenida Quis Quis,Unnamed Road,Residential,2664,-1.2562252,-78.6389239,4,-80.03,CONNECTED
683,Avenida Rodrigo Pachano,Baigon,Dense Urban,2561,-1.2286347,-78.6055782,7,-109.04,CONNECTED
684,Avenida Rodrigo Pachano,Barranquilla,Dense Urban,2562,-1.2287838,-78.6057939,7,-110.01,CONNECTED
685,Avenida Rodrigo Pachano,Batallon de Jambeli,Dense Urban,2565,-1.2290979,-78.6065669,7,-114,CONNECTED
686,Avenida Rodrigo Pachano,Batallon de Jambeli,Residential,2565,-1.2290223,-78.6066012,7,-81.01,CONNECTED
687,Avenida Rodrigo Pachano,Cabo Miranda,Residential,2549,-1.2266419,-78.6025811,7,-81.14,CONNECTED
688,Avenida Rodrigo Pachano,Cumanda,Residential,2520,-1.2296043,-78.6263496,3,-107.15,CONNECTED
689,Avenida Rodrigo Pachano,Cumanda,Residential,2521,-1.2295638,-78.6263832,3,-107.07,CONNECTED
690,Avenida Rodrigo Pachano,Cártago,Residential,2557,-1.2292492,-78.6080307,7,-86.09,CONNECTED
691,Avenida Rodrigo Pachano,Cártago,Residential,2559,-1.2291715,-78.6080407,7,-86.14,CONNECTED
692,Avenida Rodrigo Pachano,Destacamento Base Norte,Residential,2560,-1.2261695,-78.6005053,7,-86.41,CONNECTED
693,Avenida Rodrigo Pachano,Eduardo Mera,Residential,2534,-1.2336118,-78.6298387,3,-90.67,CONNECTED
694,Avenida Rodrigo Pachano,El Carrizo,Residential,2516,-1.2273402,-78.6226273,5,-108.66,CONNECTED
695,Avenida Rodrigo Pachano,El Carrizo,Park/Periphery,2517,-1.2272995,-78.6226627,5,-130.92,CONNECTED
696,Avenida Rodrigo Pachano,El Eucalipto,Residential,2549,-1.2280443,-78.6103981,7,-92.29,CONNECTED
697,Avenida Rodrigo Pachano,El Sauce,Residential,2513,-1.2269158,-78.6181519,5,-107.08,CONNECTED
698,Avenida Rodrigo Pachano,El Sauce,Residential,2516,-1.2268654,-78.6181396,5,-107.11,CONNECTED
699,Avenida Rodrigo Pachano,Guayabas,Residential,2547,-1.2365731,-78.6323523,3,-96.38,CONNECTED
700,Avenida Rodrigo Pachano,Guayabas,Residential,2548,-1.2365371,-78.6324343,3,-96.47,CONNECTED
701,Avenida Rodrigo Pachano,Juan Montalvo,Residential,2552,-1.2379275,-78.6330549,3,-98.05,CONNECTED
702,Avenida Rodrigo Pachano,Juan Montalvo,Residential,2552,-1.2378857,-78.633137,3,-98.12,CONNECTED
703,Avenida Rodrigo Pachano,Juan Montalvo,Residential,2552,-1.2378569,-78.6330221,3,-97.97,CONNECTED
704,Avenida Rodrigo Pachano,Juan Montalvo,Residential,2552,-1.2378086,-78.6331015,3,-98.03,CONNECTED
705,Avenida Rodrigo Pachano,Julio Enrique Paredes,Residential,2516,-1.2268196,-78.616548,8,-105.37,CONNECTED
706,Avenida Rodrigo Pachano,Julio Enrique Paredes,Residential,2520,-1.2267507,-78.6165646,8,-104.75,CONNECTED
707,Avenida Rodrigo Pachano,La Delicia,Residential,2552,-1.2393639,-78.6337891,3,-99.7,CONNECTED
708,Avenida Rodrigo Pachano,La Delicia,Residential,2553,-1.239315,-78.6338406,3,-99.73,CONNECTED
709,Avenida Rodrigo Pachano,La Heroina,Residential,2516,-1.2281836,-78.623926,5,-108.86,CONNECTED
710,Avenida Rodrigo Pachano,La Heroina,Residential,2516,-1.2281493,-78.6239561,5,-108.89,CONNECTED
711,Avenida Rodrigo Pachano,Las Aceitunas,Residential,2560,-1.2415375,-78.6348472,3,-101.95,CONNECTED
712,Avenida Rodrigo Pachano,Las Manzanas,Residential,2556,-1.2406912,-78.6344913,3,-101.15,CONNECTED
713,Avenida Rodrigo Pachano,Las Olivas,Residential,2543,-1.2348653,-78.6316913,3,-94.58,CONNECTED
714,Avenida Rodrigo Pachano,Los Maracuyas,Residential,2564,-1.245579,-78.637276,7,-115.45,CONNECTED
715,Avenida Rodrigo Pachano,Los Membrillos,Residential,2560,-1.2435668,-78.6354234,3,-103.56,CONNECTED
716,Avenida Rodrigo Pachano,Los Mirabeles,Residential,2543,-1.2349265,-78.6316343,3,-94.51,CONNECTED
717,Avenida Rodrigo Pachano,Mentor Mera (Cantáreas),Residential,2519,-1.2293557,-78.6258767,3,-107.15,CONNECTED
718,Avenida Rodrigo Pachano,Mentor Mera (Cantáreas),Residential,2520,-1.2293143,-78.625901,3,-107.07,CONNECTED
719,Avenida Rodrigo Pachano,Nicolas Martinez (Valle de Shuyo),Residential,2530,-1.2320947,-78.6293462,12,-103.15,CONNECTED
720,Avenida Rodrigo Pachano,Quezalterango,Residential,2532,-1.2278662,-78.6131148,12,-94.77,CONNECTED
721,Avenida Rodrigo Pachano,Reina Claudia,Residential,2562,-1.2420828,-78.6349951,3,-102.39,CONNECTED
722,Avenida Rodrigo Pachano,Sector de Guerra Huaquillas,Residential,2559,-1.2285603,-78.6052438,7,-74.97,CONNECTED
723,Avenida Rodrigo Pachano,Sector de Guerra Huaquillas,Residential,2559,-1.2285051,-78.605109,7,-74.41,CONNECTED
724,Avenida Rodrigo Pachano,Sector de Guerra Huaquillas,Residential,2559,-1.2285014,-78.605268,7,-75.32,CONNECTED
725,Avenida Rodrigo Pachano,Sector de Guerra Huaquillas,Residential,2559,-1.2284457,-78.6051319,7,-74.79,CONNECTED
726,Avenida Rodrigo Pachano,Soledad Eterna (Tijeretazos Plumas),Residential,2528,-1.2304352,-78.6279154,12,-102.41,CONNECTED
727,Avenida Rodrigo Pachano,Soledad Eterna (Tijeretazos Plumas),Residential,2528,-1.2303914,-78.6279484,12,-102.45,CONNECTED
728,Avenida Rodrigo Pachano,Unnamed Road,Residential,2528,-1.2318729,-78.6291857,12,-103.07,CONNECTED
729,Avenida Rodrigo Pachano,Unnamed Road,Residential,2533,-1.2336392,-78.6297967,3,-90.59,CONNECTED
730,Avenida Rodrigo Pachano,Unnamed Road,Residential,2553,-1.2279288,-78.6042179,7,-73.72,CONNECTED
731,Avenida Rodrigo Pachano,Unnamed Road,Residential,2559,-1.2448381,-78.6365288,3,-104.96,CONNECTED
732,Avenida Rodrigo Pachano,Unnamed Road,Dense Urban,2560,-1.2286384,-78.6054361,7,-108.08,CONNECTED
733,Avenida Rodrigo Pachano,Unnamed Road,Residential,2564,-1.2288612,-78.6061759,7,-79.24,CONNECTED
734,Avenida Rumiñahui,Caran XI,Dense Urban,2662,-1.255653,-78.631398,4,-121.78,CONNECTED
735,Avenida Rumiñahui,Hualcopo,Residential,2661,-1.2525934,-78.6276635,9,-89.98,CONNECTED
736,Avenida Rumiñahui,Hualcopo,Residential,2661,-1.2525258,-78.6277036,9,-90.03,CONNECTED
737,Avenida Rumiñahui,José Suarez,Dense Urban,2663,-1.2515045,-78.6240532,9,-108.51,CONNECTED
738,Avenida Rumiñahui,Paccha,Residential,2658,-1.2522,-78.626706,9,-87.37,CONNECTED
739,Avenida Rumiñahui,Paccha,Residential,2658,-1.2521147,-78.6267448,9,-87.42,CONNECTED
740,Avenida Rumiñahui,Pachacutec,Dense Urban,2663,-1.2553155,-78.6309487,4,-123.46,CONNECTED
741,Avenida Rumiñahui,Pachacutec,Dense Urban,2663,-1.2552444,-78.631,4,-123.39,CONNECTED
742,Avenida Rumiñahui,Unnamed Road,Dense Urban,2650,-1.2510393,-78.6224963,9,-87.32,CONNECTED
743,Avenida Rumiñahui,Unnamed Road,Dense Urban,2651,-1.2512213,-78.6225209,9,-88.27,CONNECTED
744,Avenida Rumiñahui,Unnamed Road,Residential,2660,-1.2532977,-78.6296486,4,-93.14,CONNECTED
745,Avenida Rumiñahui,Unnamed Road,Residential,2661,-1.2533874,-78.6295994,4,-93.14,CONNECTED
746,Avenida Tres Carabelas,Isidro Viteri,Residential,2643,-1.2544983,-78.6162494,9,-91.35,CONNECTED
747,Avenida Tres Carabelas,Pasaje Isabela,Dense Urban,2630,-1.2517452,-78.6192159,9,-132.85,CONNECTED
748,Avenida Tres Carabelas,Pasaje Oriente,Dense Urban,2630,-1.2520093,-78.6190401,9,-134.24,CONNECTED
749,Avenida Tres Carabelas,Pastaza,Dense Urban,2622,-1.2498328,-78.6204509,9,-128.8,CONNECTED
750,Avenida Tres Carabelas,San Cristóbal,Dense Urban,2626,-1.2509259,-78.6197381,9,-129.87,CONNECTED
751,Avenida Tres Carabelas,Seymour,Dense Urban,2633,-1.2526178,-78.6185788,0,-150,OUTAGE
752,Avenida Tres Carabelas,Sucumbios,Dense Urban,2636,-1.2528891,-78.6182747,0,-150,OUTAGE
753,Avenida Tres Carabelas,Unnamed Road,Dense Urban,2632,-1.2522575,-78.6188519,9,-135.04,CONNECTED
754,Avenida Tupac Yupanqui,Paccha,Dense Urban,2634,-1.247465,-78.628919,2,-109.04,CONNECTED
755,Avenida Tupac Yupanqui,Quimbalembo,Dense Urban,2626,-1.247106,-78.6304656,2,-91.75,CONNECTED
756,Avenida Unidad Nacional,Cristobal Colón,Dense Urban,2545,-1.2338719,-78.6231912,3,-94.73,CONNECTED
757,Avenida Unidad Nacional,Cristobal Colón,Dense Urban,2546,-1.2338453,-78.623111,3,-94.97,CONNECTED
758,Avenida Unidad Nacional,Darquea,Dense Urban,2557,-1.2355117,-78.6221325,3,-113.04,CONNECTED
759,Avenida Unidad Nacional,Darquea,Dense Urban,2558,-1.2355586,-78.6221932,3,-113.11,CONNECTED
760,Avenida Unidad Nacional,Lopez De Solís,Dense Urban,2557,-1.2345276,-78.6226928,3,-104.92,CONNECTED
761,Avenida Unidad Nacional,Primera Imprenta,Dense Urban,2557,-1.2360946,-78.6218838,3,-116.27,CONNECTED
762,Avenida Unidad Nacional,Primera Imprenta,Dense Urban,2557,-1.2360365,-78.6218154,3,-116.2,CONNECTED
763,Avenida Unidad Nacional,Redondel Velasco Ibarra,Residential,2529,-1.2319,-78.6244042,3,-88.38,CONNECTED
764,Avenida Unidad Nacional,Redondel Velasco Ibarra,Residential,2531,-1.2318095,-78.6243036,3,-87.8,CONNECTED
765,Avenida Unidad Nacional,Simón Bolívar,Dense Urban,2555,-1.235055,-78.6225779,3,-109.13,CONNECTED
766,Avenida Unidad Nacional,Simón Bolívar,Dense Urban,2555,-1.2348917,-78.6224209,3,-108.64,CONNECTED
767,Avenida Victor Hugo,Batalla de Pichincha,Residential,2652,-1.2607536,-78.614626,1,-97.87,CONNECTED
768,Avenida Victor Hugo,Batalla de Pichincha,Residential,2652,-1.2606498,-78.6146422,1,-97.51,CONNECTED
769,Avenida Victor Hugo,Batalla de Tarqui,Residential,2657,-1.2611753,-78.6156537,1,-76.59,CONNECTED
770,Avenida Victor Hugo,Mauricio Echanique,Residential,2657,-1.2611321,-78.6153227,1,-77.55,CONNECTED
771,Avenida de las Américas,Bolivia,Dense Urban,2531,-1.2343724,-78.6136056,12,-106.94,CONNECTED
772,Avenida de las Américas,Bolivia,Dense Urban,2531,-1.2343496,-78.6135413,12,-107.34,CONNECTED
773,Avenida de las Américas,Brasil,Dense Urban,2542,-1.237983,-78.6150115,12,-105.87,CONNECTED
774,Avenida de las Américas,Brasil,Dense Urban,2542,-1.2379008,-78.6149753,12,-105.07,CONNECTED
775,Avenida de las Américas,Chile,Residential,2540,-1.2321566,-78.6145615,12,-84.48,CONNECTED
776,Avenida de las Américas,Chile,Residential,2540,-1.2321118,-78.6145203,12,-84.64,CONNECTED
777,Avenida de las Américas,Colombia,Dense Urban,2546,-1.2323957,-78.6179688,12,-122.43,CONNECTED
778,Avenida de las Américas,Colombia,Dense Urban,2546,-1.2323736,-78.6178814,12,-122.29,CONNECTED
779,Avenida de las Américas,Colombia,Dense Urban,2546,-1.2323255,-78.6179788,12,-122.62,CONNECTED
780,Avenida de las Américas,Colombia,Dense Urban,2546,-1.2323057,-78.6178956,12,-122.49,CONNECTED
781,Avenida de las Américas,El Salvador,Residential,2538,-1.2333454,-78.6138229,12,-79.98,CONNECTED
782,Avenida de las Américas,El Salvador,Residential,2538,-1.2333226,-78.6137599,12,-80.16,CONNECTED
783,Avenida de las Américas,Guatemala,Dense Urban,2546,-1.232284,-78.6174637,12,-121.64,CONNECTED
784,Avenida de las Américas,Julio Enrique Paredes,Dense Urban,2544,-1.2324173,-78.6184484,3,-122.57,CONNECTED
785,Avenida de las Américas,Montes del Cajas,Dense Urban,2554,-1.2366028,-78.6176682,12,-114.66,CONNECTED
786,Avenida de las Américas,Montes del Cajas,Dense Urban,2554,-1.2365159,-78.6176439,12,-114.49,CONNECTED
787,Avenida de las Américas,México,Dense Urban,2547,-1.2321771,-78.6169883,12,-121.02,CONNECTED
788,Avenida de las Américas,México,Dense Urban,2547,-1.2321228,-78.6170129,12,-121.22,CONNECTED
789,Avenida de las Américas,Nicaragua,Dense Urban,2533,-1.2383812,-78.6139135,12,-109.04,CONNECTED
790,Avenida de las Américas,Panamá,Dense Urban,2521,-1.2361493,-78.6125028,12,-126.96,CONNECTED
791,Avenida de las Américas,Panamá,Dense Urban,2522,-1.2361817,-78.6125505,12,-126.25,CONNECTED
792,Avenida de las Américas,Paraguay,Dense Urban,2546,-1.2371546,-78.6164566,12,-108.41,CONNECTED
793,Avenida de las Américas,Paraguay,Dense Urban,2546,-1.237105,-78.6165447,12,-108.85,CONNECTED
794,Avenida de las Américas,Paraguay,Dense Urban,2547,-1.2372487,-78.616497,12,-109,CONNECTED
795,Avenida de las Américas,Paraguay,Dense Urban,2548,-1.2372005,-78.6165856,12,-109.41,CONNECTED
796,Avenida de las Américas,Puerto Rico,Dense Urban,2521,-1.2352721,-78.6131416,12,-123.63,CONNECTED
797,Avenida de las Américas,Puerto Rico,Dense Urban,2521,-1.2352426,-78.6130853,12,-124.26,CONNECTED
798,Avenida de las Américas,Puñalica,Dense Urban,2554,-1.2363677,-78.6181538,12,-116.88,CONNECTED
799,Avenida de las Américas,Redondel Juan Montalvo,Dense Urban,2528,-1.2384958,-78.613434,12,-110.89,CONNECTED
800,Avenida de las Américas,Redondel Juan Montalvo,Dense Urban,2531,-1.2382712,-78.6134193,12,-109.57,CONNECTED
801,Avenida de las Américas,Redondel Juan Montalvo,Dense Urban,2532,-1.2383134,-78.6134812,12,-109.64,CONNECTED
802,Avenida de las Américas,Redondel de Cumandá,Dense Urban,2555,-1.2361436,-78.6187281,12,-119.26,CONNECTED
803,Avenida de las Américas,Redondel de Cumandá,Dense Urban,2555,-1.2360549,-78.6186927,12,-119.13,CONNECTED
804,Avenida de las Américas,Sabanilla,Dense Urban,2529,-1.2385193,-78.6135286,12,-110.79,CONNECTED
805,Avenida de las Américas,Sabanilla,Dense Urban,2529,-1.2385051,-78.6134616,12,-110.87,CONNECTED
806,Avenida de las Américas,Unnamed Road,Dense Urban,2521,-1.2363146,-78.6123973,12,-127.84,CONNECTED
807,Avenida de las Américas,Unnamed Road,Residential,2533,-1.2340935,-78.6136003,12,-76.51,CONNECTED
808,Avenida de las Américas,Uruguay,Dense Urban,2545,-1.2320495,-78.6164289,12,-120.46,CONNECTED
809,Avenida de las Américas,Venezuela,Dense Urban,2525,-1.2373336,-78.6124436,12,-128.4,CONNECTED
810,Avenida de las Américas,Venezuela,Dense Urban,2526,-1.2373867,-78.6124872,12,-127.95,CONNECTED
811,Avenida de las Américas,Venezuela,Dense Urban,2526,-1.2373128,-78.6125391,12,-127.36,CONNECTED
812,Avenida de las Américas,Venezuela,Dense Urban,2526,-1.2372721,-78.612493,12,-127.51,CONNECTED
813,Avenida de las Américas,Verdeloma,Dense Urban,2550,-1.2369666,-78.6169894,12,-111.34,CONNECTED
814,Avenida los Atis,Pablo Arenas,Residential,2700,-1.2625223,-78.6236007,6,-84.41,CONNECTED
815,Avenida los Atis,Pasaje Juan Daliva,Dense Urban,2697,-1.2615238,-78.6243598,6,-112.1,CONNECTED
816,Avenida los Atis,Selva Alegre,Dense Urban,2699,-1.2620602,-78.623947,6,-115.73,CONNECTED
817,Avenida los Atis,Unnamed Road,Dense Urban,2696,-1.2614172,-78.6245157,6,-110.96,CONNECTED
818,Avenida los Atis,Unnamed Road,Dense Urban,2696,-1.2613964,-78.6244812,6,-111.01,CONNECTED
819,Avenida los Chasquis,Baquerizo Moreno,Dense Urban,2692,-1.2607748,-78.624538,6,-107.68,CONNECTED
820,Avenida los Chasquis,Cacique Álvarez,Dense Urban,2678,-1.2551517,-78.6232067,1,-128.75,CONNECTED
821,Avenida los Chasquis,De la Peña,Dense Urban,2674,-1.2540755,-78.622958,9,-127.53,CONNECTED
822,Avenida los Chasquis,Francisco de Marcos,Dense Urban,2680,-1.2562471,-78.6235062,1,-128.16,CONNECTED
823,Avenida los Chasquis,Gualaceo,Dense Urban,2638,-1.2493654,-78.6219213,9,-122.52,CONNECTED
824,Avenida los Chasquis,Guayas,Dense Urban,2632,-1.2480787,-78.6216665,2,-132.68,CONNECTED
825,Avenida los Chasquis,Imbabura,Dense Urban,2649,-1.2509203,-78.6222292,9,-79.56,CONNECTED
826,Avenida los Chasquis,Imbabura,Dense Urban,2649,-1.2508608,-78.6223349,9,-84.11,CONNECTED
827,Avenida los Chasquis,Isidro Viteri,Dense Urban,2694,-1.2601473,-78.6243515,6,-106.49,CONNECTED
828,Avenida los Chasquis,Javier Ascazubi,Dense Urban,2687,-1.2582445,-78.6240541,6,-110.3,CONNECTED
829,Avenida los Chasquis,José García,Dense Urban,2674,-1.2538771,-78.6229042,9,-126.44,CONNECTED
830,Avenida los Chasquis,José Mires,Dense Urban,2663,-1.2526652,-78.6226159,9,-104.58,CONNECTED
831,Avenida los Chasquis,José de Antepara,Dense Urban,2680,-1.2563934,-78.6235482,1,-128.11,CONNECTED
832,Avenida los Chasquis,Letamendi,Dense Urban,2651,-1.2514134,-78.6223164,9,-85.2,CONNECTED
833,Avenida los Chasquis,Los Incas,Dense Urban,2637,-1.2486144,-78.6217726,9,-128.88,CONNECTED
834,Avenida los Chasquis,Manco Capac,Dense Urban,2674,-1.2542229,-78.6229979,9,-128.3,CONNECTED
835,Avenida los Chasquis,Matheu,Dense Urban,2680,-1.2574468,-78.623853,1,-127.98,CONNECTED
836,Avenida los Chasquis,Oriente,Dense Urban,2620,-1.2469503,-78.621443,13,-130.63,CONNECTED
837,Avenida los Chasquis,Pasaje Juan Cuello,Dense Urban,2676,-1.2546813,-78.6231067,1,-129.16,CONNECTED
838,Avenida los Chasquis,Pastaza,Dense Urban,2645,-1.2505225,-78.6221505,9,-87.72,CONNECTED
839,Avenida los Chasquis,Poveda Burbano (J. Maria Urbina),Dense Urban,2690,-1.2589262,-78.6242201,6,-107.21,CONNECTED
840,Avenida los Chasquis,Poveda Burbano (J. Maria Urbina),Dense Urban,2690,-1.2589152,-78.6241353,6,-107.88,CONNECTED
841,Avenida los Chasquis,Puerto Ayora,Dense Urban,2639,-1.2488524,-78.6218197,9,-108.74,CONNECTED
842,Avenida los Chasquis,Puerto Ayora,Dense Urban,2641,-1.2490128,-78.6218515,9,-107.51,CONNECTED
843,Avenida los Chasquis,Unnamed Road,Dense Urban,2650,-1.25118,-78.622277,9,-80.34,CONNECTED
844,Avenida los Chasquis,Unnamed Road,Dense Urban,2650,-1.2511367,-78.6222721,9,-79.82,CONNECTED
845,Avenida los Chasquis,Unnamed Road,Dense Urban,2650,-1.2510078,-78.6224189,9,-85.22,CONNECTED
846,Avenida los Chasquis,Unnamed Road,Dense Urban,2651,-1.2512747,-78.6224464,9,-86.71,CONNECTED
847,Avenida los Chasquis,Unnamed Road,Dense Urban,2690,-1.2594894,-78.6243228,6,-105.71,CONNECTED
848,Avenida los Chasquis,Unnamed Road,Dense Urban,2694,-1.261258,-78.6244792,6,-110.35,CONNECTED
849,Avenida los Chasquis,Unnamed Road,Dense Urban,2694,-1.2612579,-78.6246147,6,-109.72,CONNECTED
850,Avenida los Chasquis,Unnamed Road,Dense Urban,2695,-1.2613752,-78.6246298,6,-110.27,CONNECTED
851,Avenida los Chasquis,Unnamed Road,Dense Urban,2696,-1.2614234,-78.6245415,6,-110.88,CONNECTED
852,Avenida los Chasquis,Victor Emilio Estrada,Dense Urban,2694,-1.2601862,-78.6244498,6,-105.83,CONNECTED
853,Azorín,García Lorca,Residential,2678,-1.258133,-78.639252,4,-81.75,CONNECTED
854,Azorín,Gustavo Adolfo Bécquer,Residential,2676,-1.258322,-78.63967,4,-83.55,CONNECTED
855,Azorín,Jorge Manrique,Residential,2673,-1.257761,-78.638436,4,-77.38,CONNECTED
856,Azuay,Biblian,Dense Urban,2626,-1.2459945,-78.6229913,2,-130.41,CONNECTED
857,Azuay,Biblian,Dense Urban,2630,-1.2466089,-78.6229083,2,-130.41,CONNECTED
858,Azuay,Guayas,Dense Urban,2635,-1.2473102,-78.6231424,2,-129.86,CONNECTED
859,Azuay,Imbabura,Dense Urban,2647,-1.2492326,-78.6237228,9,-111.27,CONNECTED
860,Azuay,Los Incas,Dense Urban,2641,-1.2480874,-78.623377,9,-115.4,CONNECTED
861,Azuay,Oriente,Dense Urban,2624,-1.2458385,-78.622692,2,-131.04,CONNECTED
862,Azuay,Oriente,Dense Urban,2624,-1.2457979,-78.6228691,2,-130.72,CONNECTED
863,Azuay,Otavalo,Dense Urban,2645,-1.2490137,-78.6236479,9,-111.96,CONNECTED
864,Azuay,Tulcan,Dense Urban,2642,-1.2486871,-78.6235581,9,-113.16,CONNECTED
865,Azucenas,Nardos,Residential,2566,-1.2465581,-78.6352843,2,-112.72,CONNECTED
866,Bahamas,Barbados,Residential,2538,-1.2327934,-78.6132495,12,-82.96,CONNECTED
867,Bahia de Caraquez,Guayas,Dense Urban,2633,-1.2472016,-78.6236767,2,-128.74,CONNECTED
868,Balarezo Moncayo,César Silva,Residential,2674,-1.2583067,-78.6336412,4,-79.37,CONNECTED
869,Balarezo Moncayo,Víctor Manuel Garcés,Dense Urban,2690,-1.259944,-78.632241,4,-121.46,CONNECTED
870,Balboa,Bartolomé Ruiz,Residential,2640,-1.2506591,-78.6364142,2,-90.37,CONNECTED
871,Balboa,Rodrigo De Triana,Residential,2641,-1.250271,-78.635328,2,-87.56,CONNECTED
872,Baltazara Teran,Letamendi,Dense Urban,2674,-1.2559426,-78.6190871,1,-118.24,CONNECTED
873,Baltazara Teran,María Inés Jiménez,Dense Urban,2672,-1.2556583,-78.6187232,1,-118.5,CONNECTED
874,Baltra,Galapagos,Residential,2611,-1.251032,-78.6163463,13,-94.65,CONNECTED
875,Baltra,Tortuga,Residential,2618,-1.2514991,-78.6169653,13,-107.04,CONNECTED
876,Baquerizo Moreno,Camilo Ponce,Dense Urban,2696,-1.2605902,-78.6262933,6,-97.32,CONNECTED
877,Baquerizo Moreno,Francisco Robles,Dense Urban,2696,-1.2605034,-78.6272715,6,-102.06,CONNECTED
878,Baquerizo Moreno,Isidro Ayora,Dense Urban,2696,-1.2606813,-78.6254005,6,-101.46,CONNECTED
879,Baquerizo Moreno,Jeronimo Carrion,Dense Urban,2697,-1.2606381,-78.6258324,6,-98.67,CONNECTED
880,Baquerizo Moreno,Jose Tamayo,Dense Urban,2695,-1.2607271,-78.6249469,6,-104.79,CONNECTED
881,Baquerizo Moreno,Manuel de Ascazubi,Dense Urban,2695,-1.2605144,-78.6270346,6,-100.28,CONNECTED
882,Baquerizo Moreno,Vicente Ramón Roca,Dense Urban,2694,-1.2604714,-78.6277407,6,-105.54,CONNECTED
883,Barbados,Canadá,Residential,2527,-1.2325506,-78.6128285,5,-100.65,CONNECTED
884,Barbados,Haití,Residential,2538,-1.2330346,-78.6136125,12,-81.58,CONNECTED
885,Barcelona,Cordova,Residential,2671,-1.257655,-78.6372488,4,-68.43,CONNECTED
886,Barcelona,Cádiz,Residential,2670,-1.2568064,-78.6356139,4,-57.48,CONNECTED
887,Barcelona,García Lorca,Residential,2682,-1.2586226,-78.6390658,4,-81.86,CONNECTED
888,Barcelona,Gustavo Adolfo Bécquer,Residential,2681,-1.2587817,-78.6394486,4,-83.48,CONNECTED
889,Barcelona,Jorge Manrique,Dense Urban,2676,-1.2581233,-78.6381336,4,-108.94,CONNECTED
890,Barcelona,Menéndez y Pelayo,Residential,2680,-1.2589617,-78.6398156,4,-84.92,CONNECTED
891,Barcelona,Murcia,Dense Urban,2673,-1.2579154,-78.6377408,4,-105.34,CONNECTED
892,Barcelona,Sergio Núñez,Residential,2663,-1.2562017,-78.6345026,4,-73.64,CONNECTED
893,Barcelona,Sevilla,Residential,2669,-1.2570627,-78.6361296,4,0.32,CONNECTED
894,Barcelona,Tenerife,Residential,2665,-1.2564971,-78.6350318,4,-68.09,CONNECTED
895,Barcelona,Unnamed Road,Dense Urban,2657,-1.2557697,-78.6335606,4,-131.7,CONNECTED
896,Barcelona,Valencia,Residential,2668,-1.2573528,-78.6366777,4,-58.51,CONNECTED
897,Barquisimeto,Guancayo,Residential,2566,-1.235607,-78.603528,7,-89.95,CONNECTED
898,Barranquilla,Bucaramangara,Residential,2558,-1.2347849,-78.6035914,7,-87.89,CONNECTED
899,Barranquilla,Calle Y,Dense Urban,2557,-1.2344323,-78.6036703,7,-121.26,CONNECTED
900,Barranquilla,Cartagena,Dense Urban,2563,-1.2301771,-78.6048785,7,-101.48,CONNECTED
901,Barranquilla,Encarnación,Dense Urban,2555,-1.232542,-78.6039506,7,-113.11,CONNECTED
902,Barranquilla,Encarnación,Dense Urban,2555,-1.2325086,-78.6038719,7,-112.87,CONNECTED
903,Barranquilla,Iguazú,Dense Urban,2560,-1.2349945,-78.6033072,7,-123.1,CONNECTED
904,Barranquilla,Rancagua,Dense Urban,2558,-1.2315389,-78.6043107,7,-107.19,CONNECTED
905,Barranquilla,Rancagua,Dense Urban,2559,-1.2307918,-78.6045886,7,-102.68,CONNECTED
906,Barranquilla,Sao Paulo,Dense Urban,2559,-1.2310513,-78.6044976,7,-104.17,CONNECTED
907,Barranquilla,Tegucigalpa,Dense Urban,2556,-1.2340451,-78.6037047,7,-119.87,CONNECTED
908,Barranquilla,Unnamed Road,Residential,2559,-1.2351148,-78.6031326,7,-88.79,CONNECTED
909,Barranquilla,Unnamed Road,Dense Urban,2559,-1.2311681,-78.6044613,7,-104.91,CONNECTED
910,Barranquilla,Unnamed Road,Dense Urban,2560,-1.2306335,-78.6046568,7,-102.01,CONNECTED
911,Batalla de Pichincha,Carlos Montufar,Residential,2658,-1.2614437,-78.6145049,1,-81.46,CONNECTED
912,Batalla de Pichincha,Morales,Residential,2648,-1.2597523,-78.6150061,1,-94.63,CONNECTED
913,Batalla de Tarqui,Morales,Dense Urban,2654,-1.2602627,-78.6159781,1,-118.53,CONNECTED
914,Batallon de Jambeli,Calle AA,Residential,2560,-1.225873,-78.6077216,7,-89.19,CONNECTED
915,Batallon de Jambeli,El Chopo,Residential,2566,-1.2274704,-78.6071744,7,-85.24,CONNECTED
916,Batallon de Jambeli,El Maizal,Residential,2566,-1.2276106,-78.6071342,7,-84.89,CONNECTED
917,Batallon de Jambeli,Unnamed Road,Residential,2563,-1.2265233,-78.6074017,7,-87.44,CONNECTED
918,Batallon de Jambeli,Unnamed Road,Residential,2566,-1.2284717,-78.6068137,7,-82.5,CONNECTED
919,Batallón los Rifles,Cazadores,Dense Urban,2672,-1.2552346,-78.6201377,1,-122.56,CONNECTED
920,Batallón los Rifles,Josefina Barba,Dense Urban,2670,-1.2545372,-78.6206142,1,-125.04,CONNECTED
921,Bayamón,Bogotá,Residential,2506,-1.2439467,-78.6068667,5,0.32,CONNECTED
922,Bayamón,Brasilia,Residential,2507,-1.2438428,-78.6064406,5,-53.7,CONNECTED
923,Baños,Oriente,Dense Urban,2620,-1.2475448,-78.6209062,13,-132.1,CONNECTED
924,Belgica,Bulgaria,Residential,2463,-1.2408453,-78.6120556,5,-115.54,CONNECTED
925,Belgica,Francia,Park/Periphery,2454,-1.241563,-78.612708,0,-150,OUTAGE
926,Belgica,Holanda,Residential,2465,-1.2403539,-78.6117852,5,-115.37,CONNECTED
927,Belgica,Rusia,Residential,2458,-1.241198,-78.6123748,5,-116.43,CONNECTED
928,Belice,Pasteur,Residential,2490,-1.2320579,-78.6117713,12,-113.25,CONNECTED
929,Benalcázar,Orellana,Dense Urban,2639,-1.2470872,-78.6327895,2,-103.46,CONNECTED
930,Benalcázar,Pizarro,Dense Urban,2627,-1.2482689,-78.6339541,2,-112.89,CONNECTED
931,Benalcázar,Pizarro,Dense Urban,2635,-1.2466256,-78.6323274,2,-100.76,CONNECTED
932,Benjamin Bravo,César Borja (Italia),Dense Urban,2533,-1.2322721,-78.6207263,3,-113.34,CONNECTED
933,Benjamin Bravo,German Abad,Dense Urban,2532,-1.231882,-78.6200112,3,-117.26,CONNECTED
934,Benjamin Franklin,Johanes Gutemberg,Park/Periphery,2614,-1.2608199,-78.5976879,13,-133.99,CONNECTED
935,Benjamin Franklin,Oppenheimer,Park/Periphery,2623,-1.2616665,-78.6014823,0,-150,OUTAGE
936,Benjamin Franklin,Townes,Park/Periphery,2619,-1.2616599,-78.6000696,0,-150,OUTAGE
937,Benjamin Franklin,Townes,Park/Periphery,2622,-1.2615836,-78.6005181,0,-150,OUTAGE
938,Benjamin Franklin,Unnamed Road,Park/Periphery,2618,-1.2612611,-78.5987518,0,-150,OUTAGE
939,Benjamín Carrión,Dario Guevara,Dense Urban,2680,-1.2590535,-78.6302632,4,-125.53,CONNECTED
940,Benjamín Carrión,Horacio Sevilla,Dense Urban,2705,-1.261292,-78.63305,6,-127.77,CONNECTED
941,Benjamín Carrión,Jorge Mideros,Dense Urban,2691,-1.2605473,-78.6321424,6,-125.13,CONNECTED
942,Benjamín Carrión,Luis Armendaris,Residential,2707,-1.261485,-78.633335,6,-93.01,CONNECTED
943,Benjamín Carrión,Manuel Isaías Sánchez,Residential,2704,-1.2619275,-78.6338668,6,-94.16,CONNECTED
944,Benjamín Carrión,Rodrigo Vela Barahona,Dense Urban,2688,-1.2599224,-78.6313405,6,-122.55,CONNECTED
945,Benjamín Carrión,Rodrigo Vela Barahona,Dense Urban,2688,-1.2598725,-78.6312779,6,-122.33,CONNECTED
946,Benjamín Carrión,Óscar Efrén Reyes,Dense Urban,2701,-1.2610643,-78.6327684,6,-126.99,CONNECTED
947,Berona,Gustavo Adolfo Bécquer,Residential,2662,-1.2562201,-78.6407118,4,-86.54,CONNECTED
948,Berona,Salamanca,Residential,2663,-1.2555903,-78.6399448,4,-84.72,CONNECTED
949,Berona,Unnamed Road,Residential,2654,-1.2552062,-78.6395407,4,-103.85,CONNECTED
950,Biblian,Oriente,Dense Urban,2620,-1.2457121,-78.6230435,2,-130.42,CONNECTED
951,Blanca Martinez (La Agricultura Ecuatoriana),Edmundo Martinez,Residential,2551,-1.2333392,-78.6321631,3,-95.02,CONNECTED
952,Blanca Martinez (La Agricultura Ecuatoriana),Eduardo Mera,Residential,2549,-1.2326834,-78.6314553,3,-93.82,CONNECTED
953,Bogotá,Caracas,Residential,2503,-1.2464784,-78.6061378,5,-78.62,CONNECTED
954,Bogotá,Edmonton,Residential,2504,-1.247056,-78.6059324,5,-81.52,CONNECTED
955,Bogotá,Kingston,Residential,2504,-1.2449434,-78.606792,5,-65.15,CONNECTED
956,Bogotá,Masaya,Residential,2503,-1.245428,-78.6065764,5,-70.88,CONNECTED
957,Bogotá,Montevideo,Park/Periphery,2497,-1.2477983,-78.6057284,5,-104.43,CONNECTED
958,Bogotá,Río de Janeiro,Park/Periphery,2487,-1.2485409,-78.6055617,5,-128.04,CONNECTED
959,Bolivar,Julio Enrique Paredes,Dense Urban,2539,-1.231898,-78.6185074,3,-122.65,CONNECTED
960,Bolivia,Colombia,Dense Urban,2539,-1.23589,-78.616074,12,-103.26,CONNECTED
961,Bolivia,México,Dense Urban,2533,-1.2352908,-78.6151838,12,-97.34,CONNECTED
962,Bolivia,Uruguay,Dense Urban,2533,-1.2352425,-78.6150966,12,-97.17,CONNECTED
963,Bolivia,Venezuela,Dense Urban,2532,-1.2346929,-78.6141879,12,-102.27,CONNECTED
964,Brasil,Estados Unidos,Dense Urban,2539,-1.2373973,-78.6147667,12,-99.16,CONNECTED
965,Brasil,Panamá,Dense Urban,2538,-1.2369551,-78.6145478,12,-91.38,CONNECTED
966,Brasil,Uruguay,Dense Urban,2537,-1.2365444,-78.6142947,12,-81.08,CONNECTED
967,Brasilia,Bulgaria,Residential,2470,-1.240498,-78.6125894,12,-114.79,CONNECTED
968,Brasilia,Francia,Residential,2467,-1.2410545,-78.6130574,12,-116.08,CONNECTED
969,Brasilia,Habana,Residential,2513,-1.2408029,-78.6068168,5,-81.08,CONNECTED
970,Brasilia,Rusia,Residential,2469,-1.2408547,-78.6127999,12,-115.6,CONNECTED
971,Brasilia,Tucumán,Residential,2509,-1.2424022,-78.6066523,5,-71.33,CONNECTED
972,Brasilia,Unnamed Road,Residential,2511,-1.2411501,-78.6068246,5,-79.45,CONNECTED
973,Bucaramangara,Camaguey,Residential,2560,-1.2348706,-78.6040583,7,-88.18,CONNECTED
974,Buenos Aires,La Paz,Residential,2511,-1.2396202,-78.6057206,5,-85.98,CONNECTED
975,Buenos Aires,Mendoza,Residential,2519,-1.2388135,-78.6057647,5,-88.2,CONNECTED
976,Buenos Aires,Punta del Este,Residential,2518,-1.2384512,-78.6055138,5,-89.24,CONNECTED
977,Buenos Aires,Santiago,Residential,2507,-1.2405592,-78.6055602,5,-83.07,CONNECTED
978,Buenos Aires,Tucumán,Residential,2499,-1.2419702,-78.6053604,5,-77.81,CONNECTED
979,Buenos Aires,Unnamed Road,Park/Periphery,2459,-1.2462715,-78.6024395,5,-133.67,CONNECTED
980,Buenos Aires,Unnamed Road,Residential,2518,-1.2389498,-78.6057837,5,-87.83,CONNECTED
981,Buenos Aires,Unnamed Road,Residential,2519,-1.2383662,-78.6054573,5,-89.48,CONNECTED
982,Bulgaria,Calle Europa,Residential,2478,-1.2400304,-78.613413,12,-111.75,CONNECTED
983,Bélgica,Eduardo Paredes,Dense Urban,2535,-1.2323232,-78.621342,3,-109.55,CONNECTED
984,C 30,Calle Y,Dense Urban,2556,-1.2334134,-78.6047814,7,-118.15,CONNECTED
985,C 30,Cártago,Dense Urban,2548,-1.2334375,-78.6051749,7,-118.82,CONNECTED
986,C 37,Unnamed Road,Residential,2519,-1.238002,-78.6049774,5,-90.6,CONNECTED
987,Cacha,Huayna Capac,Dense Urban,2642,-1.2483438,-78.6306507,2,-96.69,CONNECTED
988,Cacique Álvarez,Cazadores,Dense Urban,2679,-1.2564838,-78.6218774,1,-124.17,CONNECTED
989,Cacique Álvarez,Eusebio Barrera,Dense Urban,2677,-1.2551982,-78.6228894,1,-128.11,CONNECTED
990,Cacique Álvarez,Isidro Viteri,Dense Urban,2683,-1.2578248,-78.6208761,1,-119.25,CONNECTED
991,Cacique Álvarez,Jorge Ricaurte,Dense Urban,2676,-1.2559207,-78.6223008,1,-125.95,CONNECTED
992,Cacique Álvarez,Juan Ormaza,Dense Urban,2674,-1.2555717,-78.6225814,1,-127.01,CONNECTED
993,Cacique Álvarez,Luis Saa,Dense Urban,2680,-1.2551509,-78.6237245,1,-129.69,CONNECTED
994,Cacique Álvarez,Manuel Rivadeneria,Dense Urban,2691,-1.260064,-78.619144,1,-123.05,CONNECTED
995,Cacique Álvarez,Morales,Residential,2687,-1.261506,-78.618349,1,-91.12,CONNECTED
996,Cacique Álvarez,Pablo Arenas,Dense Urban,2684,-1.2596777,-78.6194335,1,-111.02,CONNECTED
997,Cacique Álvarez,Pasaje Borja,Dense Urban,2677,-1.2560843,-78.622194,1,-125.49,CONNECTED
998,Cacique Álvarez,Quijano,Dense Urban,2683,-1.2573989,-78.6211728,1,-120.85,CONNECTED
999,Cactus,Francisco Flor,Residential,2554,-1.2433197,-78.6327251,3,-101.61,CONNECTED
1000,Cactus,Unnamed Road,Residential,2556,-1.2440242,-78.6333363,3,-102.52,CONNECTED
1001,Cajanuma,Cordillera Occidental,Dense Urban,2589,-1.2445998,-78.6188192,13,-102.24,CONNECTED
1002,Cajanuma,Sincholagua,Dense Urban,2596,-1.2454275,-78.6190887,13,-107.89,CONNECTED
1003,Calderón de la Barca,López de Ayala,Residential,2698,-1.2616757,-78.6388315,6,-100.62,CONNECTED
1004,Calicuchima,Huayna Capac,Dense Urban,2639,-1.2498613,-78.6315334,2,-110.31,CONNECTED
1005,Calicuchima,Pintag,Dense Urban,2636,-1.2495728,-78.6320134,2,-109.17,CONNECTED
1006,Calicuchima,Razo Razo,Dense Urban,2648,-1.2506589,-78.6301618,2,-115.64,CONNECTED
1007,Calle 1,Cataguango,Residential,2639,-1.2574442,-78.6142645,9,-97.04,CONNECTED
1008,Calle 1,Galapagos,Residential,2625,-1.2566665,-78.6136864,2,-106.65,CONNECTED
1009,Calle 2,La Libertad,Dense Urban,2627,-1.249849,-78.6207911,9,-125.33,CONNECTED
1010,Calle 2,Machala,Dense Urban,2632,-1.2499537,-78.6211305,9,-120.79,CONNECTED
1011,Calle 3,El Algarrobo,Park/Periphery,2587,-1.2246112,-78.621884,8,-112.53,CONNECTED
1012,Calle 3,El Bambú,Park/Periphery,2596,-1.2249632,-78.6188237,8,-103.46,CONNECTED
1013,Calle 3,El Cedro,Residential,2589,-1.2235047,-78.6146791,8,-72.45,CONNECTED
1014,Calle 6,Calle Europa,Park/Periphery,2450,-1.2498603,-78.6140303,0,-150,OUTAGE
1015,Calle 7,Calle Europa,Park/Periphery,2468,-1.2493113,-78.6149402,0,-150,OUTAGE
1016,Calle 7,Desconoida,Park/Periphery,2478,-1.251129,-78.614069,0,-150,OUTAGE
1017,Calle AA,El Chaguarquero,Residential,2559,-1.2259087,-78.6078734,7,-89.41,CONNECTED
1018,Calle AA,El Chaguarquero,Park/Periphery,2591,-1.2217155,-78.6137438,8,-103.09,CONNECTED
1019,Calle AA,El Sauce,Park/Periphery,2598,-1.220094,-78.6148371,8,-107.95,CONNECTED
1020,Calle AM,Matanzas Calle 15,Residential,2486,-1.2319297,-78.6086119,7,-117.12,CONNECTED
1021,Calle AM,Unnamed Road,Residential,2481,-1.2329,-78.6077783,7,-117.01,CONNECTED
1022,Calle AM,Unnamed Road,Residential,2481,-1.23259,-78.608102,7,-117.23,CONNECTED
1023,Calle AX,Kingston,Residential,2501,-1.2452972,-78.6074729,5,-70.61,CONNECTED
1024,Calle Cantiga Nocturna,Calle Sin Nombre,Residential,2584,-1.22597,-78.6261351,8,-98.61,CONNECTED
1025,Calle Cantiga Nocturna,Disparates Y Caricaturas (Calle G),Residential,2567,-1.2254377,-78.6257096,3,-106.81,CONNECTED
1026,Calle Cantiga Nocturna,Unnamed Road,Residential,2614,-1.2263042,-78.6275535,13,-105.93,CONNECTED
1027,Calle Cantiga Nocturna,Unnamed Road,Park/Periphery,2653,-1.2257514,-78.6296558,9,-133.11,CONNECTED
1028,Calle Ciudad del Este,Chicago,Residential,2537,-1.2319691,-78.6000705,12,-102.81,CONNECTED
1029,Calle Ciudad del Este,David,Residential,2537,-1.231853,-78.6001513,12,-102.76,CONNECTED
1030,Calle Ciudad del Este,Filadelfia,Residential,2537,-1.2313441,-78.6004983,12,-102.6,CONNECTED
1031,Calle Ciudad del Este,Puerto Mont,Residential,2538,-1.2315102,-78.6003861,12,-102.65,CONNECTED
1032,Calle Ciudad del Este,Unnamed Road,Residential,2539,-1.2322145,-78.6000152,12,-102.79,CONNECTED
1033,Calle D,Paltacalo,Residential,2652,-1.2611481,-78.6128465,9,-101.35,CONNECTED
1034,Calle El Ideal,La Democracia,Park/Periphery,2656,-1.2301927,-78.6379681,10,-126.77,CONNECTED
1035,Calle El Ideal,Unnamed Road,Park/Periphery,2660,-1.2294427,-78.6384791,10,-129.22,CONNECTED
1036,Calle Europa,Calle Europa Vía A Quillan,Park/Periphery,2430,-1.2542873,-78.606022,0,-150,OUTAGE
1037,Calle Europa,Calle M,Park/Periphery,2436,-1.2546431,-78.6104776,0,-150,OUTAGE
1038,Calle Europa,Desconoida,Park/Periphery,2465,-1.249545,-78.6148317,0,-150,OUTAGE
1039,Calle Europa,Francia,Residential,2479,-1.2404024,-78.6135923,12,-112.69,CONNECTED
